bairro,endereco,quartos,tipo,preco,distancia_aeroporto,cep,banheiros,vagas,area_terreno,area_construida,ano_construcao,latitude,longitude
Collingwood,2/79 Oxford St,2,kitnet,855000.0,1.6,3066.0,1,1,2886.0,122.0,1830.0,-37.8042,144.9845
Fitzroy,52 Nicholson St,4,casa,3310000.0,1.6,3065.0,4,2,337.0,291.0,1854.0,-37.8052,144.9739
Parkville,152 Park Dr,2,casa,2200000.0,2.6,3052.0,2,1,190.0,172.0,1875.0,-37.7928,144.9575
Carlton,100 Faraday St,2,casa,1010000.0,1.8,3053.0,1,0,101.0,60.0,1880.0,-37.7989,144.9713
Fitzroy North,470 Brunswick St,2,casa,860000.0,3.5,3068.0,1,0,104.0,70.0,1880.0,-37.7927,144.9796
Prahran,47 Clifton St,2,casa,815000.0,4.5,3181.0,1,0,96.0,71.0,1880.0,-37.8501,144.9953
North Melbourne,12 Curzon St,2,casa,885000.0,2.3,3051.0,1,1,111.0,73.0,1880.0,-37.8044,144.9481
Yarraville,25 Norfolk St,3,casa,950000.0,7.0,3013.0,1,2,240.0,84.0,1880.0,-37.8202,144.8896
Clifton Hill,66 Noone St,2,casa,780000.0,3.4,3068.0,1,1,155.0,85.0,1880.0,-37.7934,144.9922
Collingwood,5 Charlotte St,2,casa,1000000.0,1.6,3066.0,1,2,159.0,86.0,1880.0,-37.7962,144.9887
Collingwood,1/78 Oxford St,2,apartamento,945000.0,1.6,3066.0,1,1,15900.0,98.0,1880.0,-37.80352,144.98503
Collingwood,84 Budd St,3,casa,1075000.0,1.6,3066.0,1,0,183.0,104.0,1880.0,-37.7948,144.9875
Port Melbourne,89 Cruikshank St,3,casa,1470000.0,3.8,3207.0,1,0,153.0,109.0,1880.0,-37.8382,144.9469
South Melbourne,144 Cobden St,3,casa,1405000.0,2.1,3205.0,1,1,181.0,117.0,1880.0,-37.8365,144.9631
Fitzroy North,167 Alexandra Pde,2,casa,846000.0,3.5,3068.0,1,0,160.0,119.0,1880.0,-37.79327,144.98358000000005
Hawthorn East,18 Gillman St,3,casa,1890000.0,7.5,3123.0,1,2,477.0,173.0,1880.0,-37.8257,145.0514
Williamstown,139 Cecil St,4,casa,2255000.0,8.0,3016.0,1,3,765.0,257.0,1880.0,-37.8621,144.8999
Moonee Ponds,65 Darling St,3,casa,1240000.0,6.9,3039.0,2,2,275.0,106.0,1880.0,-37.76785,144.91728999999995
South Yarra,49 Leopold St,4,casa,2600000.0,3.3,3141.0,2,2,141.0,127.0,1880.0,-37.8366,144.9827
Albert Park,27 Barrett St,4,casa,2140000.0,3.3,3206.0,2,1,183.0,145.0,1880.0,-37.8434,144.9495
Cremorne,443 Punt Rd,3,casa,1280000.0,2.5,3121.0,2,2,324.0,165.0,1880.0,-37.8278,144.9885
Cremorne,443 Punt Rd,3,casa,1475000.0,2.5,3121.0,2,2,324.0,165.0,1880.0,-37.8278,144.9885
Moonee Ponds,43 Chaucer St,3,casa,1440000.0,6.9,3039.0,2,1,287.0,196.0,1880.0,-37.7698,144.9214
St Kilda,30 Odessa St,4,casa,1950000.0,6.1,3182.0,2,2,436.0,211.0,1880.0,-37.8629,144.9887
Port Melbourne,203 Station St,3,casa,2400000.0,3.8,3207.0,2,2,368.0,226.0,1880.0,-37.83473,144.9389
South Yarra,18 Avoca St,4,casa,5700000.0,3.3,3141.0,2,0,292.0,272.0,1880.0,-37.8377,144.9894
Canterbury,49 Mangarra Rd,5,casa,8000000.0,9.0,3126.0,5,4,2079.0,464.3,1880.0,-37.81788,145.06939
St Kilda,18 Crimea St,5,casa,5046000.0,6.1,3182.0,3,3,1294.0,378.0,1884.0,-37.8589,144.9883
Fitzroy North,2 Scotchmer St,2,casa,1210000.0,3.5,3068.0,1,1,223.0,118.0,1885.0,-37.7829,144.9782
Kew,17 Gladstone St,3,casa,1410000.0,5.6,3101.0,1,2,304.0,127.0,1885.0,-37.8023,145.0404
Malvern East,558 Waverley Rd,3,casa,1500000.0,11.2,3145.0,1,2,888.0,165.0,1886.0,-37.8799,145.0738
Kensington,14 Altona St,2,apartamento,812000.0,4.2,3031.0,1,0,132.0,79.0,1887.0,-37.7989,144.9275
Ascot Vale,75 Maribyrnong Rd,6,casa,2250000.0,5.9,3032.0,3,2,1012.0,435.0,1887.0,-37.77214,144.91838
Ascot Vale,75 Maribyrnong Rd,6,casa,2425000.0,5.9,3032.0,3,2,1014.0,435.0,1887.0,-37.7721,144.9184
Armadale,28 Cambridge St,3,casa,1870000.0,6.3,3143.0,1,1,217.0,116.0,1888.0,-37.8592,145.0182
Armadale,7 Llaneast St,3,casa,1939000.0,6.3,3143.0,2,2,296.0,150.0,1889.0,-37.8614,145.0274
Newport,8 Crawford St,2,casa,650000.0,8.4,3015.0,1,1,149.0,62.0,1890.0,-37.8491,144.8903
North Melbourne,649 Queensberry St,2,casa,940000.0,2.3,3051.0,1,0,89.0,65.0,1890.0,-37.80337,144.94897
Brunswick East,5 Linden St,2,casa,1015000.0,4.5,3057.0,1,0,137.0,67.0,1890.0,-37.77384,144.97332
Albert Park,6 Brooke St,2,casa,980000.0,3.3,3206.0,1,0,79.0,68.0,1890.0,-37.8387,144.9519
Footscray,119 Droop St,2,casa,745000.0,6.4,3011.0,1,1,355.0,74.0,1890.0,-37.7931,144.8938
Brunswick,13 Goodman St,2,casa,884000.0,5.2,3056.0,1,0,148.0,75.0,1890.0,-37.77305,144.95681000000005
Flemington,121 Princes St,2,casa,1060000.0,4.4,3031.0,1,0,209.0,75.0,1890.0,-37.78464,144.92805
Fitzroy North,92 Scotchmer St,2,casa,1008000.0,3.5,3068.0,1,1,150.0,77.0,1890.0,-37.7833,144.9819
Ascot Vale,8 Geddes St,2,casa,710000.0,5.9,3032.0,1,1,214.0,77.0,1890.0,-37.7776,144.9142
Ascot Vale,63 Kent St,2,casa,751000.0,5.9,3032.0,1,1,118.0,79.0,1890.0,-37.7807,144.9288
Collingwood,382 Wellington St,2,casa,855000.0,1.6,3066.0,1,0,130.0,80.0,1890.0,-37.7953,144.9882
Cremorne,18 Chapel St,2,casa,1015000.0,2.5,3121.0,1,1,131.0,80.0,1890.0,-37.8274,144.9967
Kew,73 Cobden St,2,casa,1326000.0,5.6,3101.0,1,2,405.0,80.0,1890.0,-37.8012,145.0361
Richmond,45 Westbank Tce,2,casa,1045000.0,2.6,3121.0,1,1,138.0,81.0,1890.0,-37.8218,145.0132
Carlton,34 Barkly St,2,casa,1170000.0,1.8,3053.0,1,1,144.0,81.0,1890.0,-37.7984,144.9738
Brunswick,10 Cliff St,1,casa,772000.0,5.2,3056.0,1,1,147.0,82.0,1890.0,-37.7643,144.9584
Albert Park,364 Montague St,2,casa,1562500.0,3.3,3206.0,1,0,141.0,83.0,1890.0,-37.8424,144.9562
Albert Park,91 Page St,3,casa,2150000.0,3.3,3206.0,1,1,163.0,85.0,1890.0,-37.84725,144.95498999999995
Clifton Hill,119 Roseneath St,2,casa,1075000.0,3.4,3068.0,1,1,174.0,85.0,1890.0,-37.7928,144.9987
Footscray,3 Park St,4,casa,775000.0,6.4,3011.0,1,2,277.0,87.0,1890.0,-37.7901,144.8883
Brunswick,141 Gold St,2,casa,845500.0,5.2,3056.0,1,1,179.0,90.0,1890.0,-37.7742,144.9542
Carlton,27 Faraday St,2,casa,1117000.0,1.8,3053.0,1,0,128.0,92.0,1890.0,-37.7996,144.9737
Fitzroy North,35 Birkenhead St,2,casa,1290000.0,3.5,3068.0,1,0,136.0,92.0,1890.0,-37.7819,144.9824
Elwood,7 Moore St,2,casa,1210000.0,7.7,3184.0,1,0,163.0,92.0,1890.0,-37.8778,144.9904
South Yarra,26 Fawkner St,2,casa,1455000.0,3.3,3141.0,1,0,225.0,94.0,1890.0,-37.8421,144.9876
Clifton Hill,15 Dally St,2,casa,1250000.0,3.4,3068.0,1,0,158.0,95.0,1890.0,-37.79245,144.99948999999995
Moonee Ponds,19 Sussex St,2,casa,945000.0,6.9,3039.0,1,0,225.0,97.0,1890.0,-37.7639,144.9093
Seddon,14 Pole St,3,casa,970000.0,6.6,3011.0,1,0,137.0,98.0,1890.0,-37.8078,144.8972
Flemington,59 Victoria St,2,casa,730000.0,4.4,3031.0,1,1,140.0,98.0,1890.0,-37.7867,144.9342
Albert Park,65 Graham St,2,casa,1322500.0,3.3,3206.0,1,0,149.0,98.0,1890.0,-37.8443,144.9481
Clifton Hill,40 Myrtle St,2,casa,1290000.0,3.4,3068.0,1,0,164.0,99.0,1890.0,-37.7912,144.9967
Cremorne,66 Green St,3,casa,1300000.0,2.5,3121.0,1,1,326.0,100.0,1890.0,-37.8283,144.9946
Fitzroy,84 Kerr St,2,casa,1122000.0,1.6,3065.0,1,0,106.0,101.0,1890.0,-37.7968,144.9781
Coburg,16 Linda St,2,casa,953000.0,7.8,3058.0,1,1,170.0,101.0,1890.0,-37.7508,144.9608
Brunswick East,178 Weston St,2,casa,1080000.0,4.5,3057.0,1,0,193.0,101.0,1890.0,-37.7765,144.9751
Kensington,26 Hopetoun St,2,casa,1155000.0,4.2,3031.0,1,1,197.0,101.0,1890.0,-37.7918,144.9264
Burnley,154 Stawell St,3,casa,1435000.0,3.5,3121.0,1,0,182.0,102.0,1890.0,-37.8289,145.0089
Parkville,92 Fitzgibbon St,2,casa,1805000.0,2.6,3052.0,1,1,187.0,102.0,1890.0,-37.7939,144.9572
Northcote,6 Dally St,2,casa,1035000.0,5.5,3070.0,1,2,243.0,102.0,1890.0,-37.7653,145.0014
Hawthorn,24 College St,3,casa,1551000.0,4.6,3122.0,1,1,199.0,103.0,1890.0,-37.8172,145.0243
Brunswick,58 Cassels Rd,3,casa,860000.0,5.2,3056.0,1,1,184.0,104.0,1890.0,-37.7563,144.96
Brunswick,4 Frederick St,3,casa,1170000.0,5.2,3056.0,1,0,285.0,104.0,1890.0,-37.7634,144.9593
Fitzroy,431 George St,3,casa,1250000.0,1.6,3065.0,1,1,113.0,105.0,1890.0,-37.7966,144.9821
Abbotsford,78 Yarra St,3,casa,1176500.0,2.5,3067.0,1,1,138.0,105.0,1890.0,-37.8021,144.9965
Box Hill,19 Kent Rd,3,casa,928000.0,13.1,3128.0,1,1,307.0,106.0,1890.0,-37.8247,145.1206
Clifton Hill,31 Fenwick St,2,casa,1450000.0,3.4,3068.0,1,0,156.0,107.0,1890.0,-37.7892,144.9999
Hawthorn,14 Malmsbury St,3,casa,1420000.0,4.6,3122.0,1,0,218.0,108.0,1890.0,-37.8214,145.0437
Northcote,43 Christmas St,2,casa,1286000.0,5.5,3070.0,1,1,245.0,108.0,1890.0,-37.7662,145.0096
Fitzroy North,191 Scotchmer St,3,casa,1300000.0,3.5,3068.0,1,1,203.0,110.0,1890.0,-37.7834,144.9862
St Kilda,25 Fawkner St,2,casa,1440000.0,6.1,3182.0,1,2,194.0,112.0,1890.0,-37.85771,144.97742
Seddon,56 Hamilton St,3,casa,1145000.0,6.6,3011.0,1,1,350.0,116.0,1890.0,-37.8094,144.8869
Preston,192 Wood St,4,casa,870000.0,8.8,3072.0,1,2,400.0,117.0,1890.0,-37.7346,145.0164
Richmond,8 Malleson St,3,casa,1420000.0,2.6,3121.0,1,0,198.0,119.0,1890.0,-37.8225,145.0007
Richmond,249 Punt Rd,4,casa,950000.0,2.6,3121.0,1,0,254.0,124.0,1890.0,-37.8201,144.9898
Richmond,249 Punt Rd,4,casa,905000.0,2.6,3121.0,1,0,254.0,124.0,1890.0,-37.8201,144.9898
Seddon,64 Pilgrim St,3,casa,880000.0,6.6,3011.0,1,0,216.0,125.0,1890.0,-37.8052,144.8941
Preston,287 Tyler St,3,casa,1650000.0,8.8,3072.0,1,2,452.0,129.0,1890.0,-37.7307,145.0094
Albert Park,49 Page St,3,casa,2000000.0,3.3,3206.0,1,1,238.0,131.0,1890.0,-37.8461,144.9528
Flemington,54 Princes St,3,casa,917000.0,4.4,3031.0,1,0,143.0,136.0,1890.0,-37.78679,144.93471
Northcote,160 Bent St,4,casa,1420000.0,5.5,3070.0,1,1,465.0,137.0,1890.0,-37.7662,144.9889
Carlton,130 Rathdowne St,4,casa,1616000.0,1.8,3053.0,1,0,152.0,139.0,1890.0,-37.7966,144.9709
Camberwell,21 Avenue Rd,3,casa,1905000.0,7.8,3124.0,1,2,400.0,145.0,1890.0,-37.8333,145.06157
Seddon,18 William St,4,casa,1270000.0,6.6,3011.0,1,1,352.0,150.0,1890.0,-37.8059,144.8899
Fitzroy,31 Bell St,4,casa,1950000.0,1.6,3065.0,1,0,177.0,152.0,1890.0,-37.7999,144.9759
Elsternwick,275 Kooyong Rd,3,casa,1605000.0,8.5,3185.0,1,1,418.0,152.0,1890.0,-37.8831,145.0153
Northcote,39 Barry St,3,casa,1710000.0,5.5,3070.0,1,1,247.0,160.0,1890.0,-37.7798,144.9952
Brunswick,64 Hanover St,3,casa,1250000.0,5.2,3056.0,1,1,483.0,162.0,1890.0,-37.7602,144.9543
Port Melbourne,130 Nott St,3,casa,985000.0,3.8,3207.0,1,0,171.0,167.0,1890.0,-37.8385,144.9409
Port Melbourne,146 Dow St,5,casa,2350000.0,3.8,3207.0,1,2,350.0,173.0,1890.0,-37.8407,144.9424
Coburg,243 Moreland Rd,3,casa,1370000.0,7.8,3058.0,1,1,233.0,180.0,1890.0,-37.7549,144.9611
Ascot Vale,12 Mirams St,4,casa,890000.0,5.9,3032.0,1,1,300.0,185.0,1890.0,-37.7766,144.9143
Parkville,110 Gatehouse St,4,casa,1928000.0,2.6,3052.0,1,0,194.0,186.0,1890.0,-37.7944,144.9542
Brunswick East,94 Barkly St,4,casa,1815000.0,4.5,3057.0,1,1,233.0,204.0,1890.0,-37.7776,144.9727
Kingsville,309 Geelong Rd,2,casa,685000.0,7.8,3012.0,1,1,220.0,219.0,1890.0,-37.8068,144.8782
Canterbury,5 Margaret St,4,casa,2620000.0,9.0,3126.0,1,1,717.0,235.0,1890.0,-37.8266,145.0849
Caulfield South,30 Cedar St,2,casa,1001000.0,9.3,3162.0,2,1,255.0,85.0,1890.0,-37.8887,145.0207
South Melbourne,247 York St,3,casa,1250000.0,2.1,3205.0,2,0,224.0,113.0,1890.0,-37.8329,144.9529
Hawthorn East,61 Roseberry St,3,casa,1625000.0,7.5,3123.0,2,1,255.0,115.0,1890.0,-37.8266,145.0493
Richmond,41 Cameron St,3,casa,1320000.0,2.6,3121.0,2,2,171.0,118.0,1890.0,-37.8166,144.9987
Parkville,55 Park Dr,3,casa,2790000.0,2.6,3052.0,2,1,180.0,120.0,1890.0,-37.79588,144.95718
Prahran,3 Arkle St,3,casa,1811000.0,4.5,3181.0,2,1,273.0,125.0,1890.0,-37.8544,145.0038
Newport,115 North Rd,3,casa,1046000.0,8.4,3015.0,2,2,284.0,125.0,1890.0,-37.8446,144.8861
Hawthorn,37 Brook St,3,casa,1400000.0,4.6,3122.0,2,1,164.0,126.0,1890.0,-37.8159,145.0219
South Melbourne,72 Smith St,3,casa,1595000.0,2.1,3205.0,2,0,171.0,126.0,1890.0,-37.8391,144.9501
Brunswick,69 Glenlyon Rd,3,casa,1210000.0,5.2,3056.0,2,1,280.0,130.0,1890.0,-37.7719,144.9661
Albert Park,17 Reed St,3,casa,1740000.0,3.3,3206.0,2,2,147.0,134.0,1890.0,-37.8448,144.9453
Clifton Hill,11 Page St,3,casa,1370000.0,3.4,3068.0,2,1,176.0,135.0,1890.0,-37.7921,144.9898
South Yarra,3 Palermo St,3,casa,2285000.0,3.3,3141.0,2,2,221.0,135.0,1890.0,-37.8416,144.9959
South Melbourne,16 Tribe St,3,casa,2000000.0,2.1,3205.0,2,1,161.0,141.0,1890.0,-37.8383,144.9499
Fairfield,197 Station St,4,casa,1160000.0,5.8,3078.0,2,1,381.0,145.0,1890.0,-37.7735,145.0192
Brunswick East,9 John St,4,casa,1625000.0,4.5,3057.0,2,2,822.0,145.0,1890.0,-37.7749,144.9762
Albert Park,97 Page St,3,casa,3010000.0,3.3,3206.0,2,0,147.0,146.0,1890.0,-37.8473,144.9551
Middle Park,23 Nimmo St,3,casa,2250000.0,4.1,3206.0,2,1,148.0,146.0,1890.0,-37.84705,144.96437
South Yarra,62 Powell St,3,casa,1945000.0,3.3,3141.0,2,1,194.0,148.0,1890.0,-37.8395,144.9898
Prahran,93 Charles St,3,casa,2180000.0,4.5,3181.0,2,2,238.0,153.0,1890.0,-37.8476,144.9892
Princes Hill,77 McIlwraith St,4,casa,1908000.0,3.7,3054.0,2,1,256.0,156.0,1890.0,-37.7833,144.9681
Footscray,37 Stirling St,3,casa,1362000.0,6.4,3011.0,2,0,497.0,156.0,1890.0,-37.7958,144.9024
Moonee Ponds,61 Athol St,3,casa,1400000.0,6.9,3039.0,2,2,394.0,160.0,1890.0,-37.7699,144.9149
Hawthorn East,11 Council St,3,casa,1320000.0,7.5,3123.0,2,1,213.0,162.0,1890.0,-37.8302,145.0542
Carlton North,1018 Drummond St,4,casa,2520000.0,3.2,3054.0,2,2,504.0,168.0,1890.0,-37.7805,144.9721
Yarraville,47 Bayview Rd,5,casa,1815000.0,7.0,3013.0,2,2,644.0,172.0,1890.0,-37.8102,144.8857
Hawthorn,23 Edgerton St,4,casa,1936000.0,4.6,3122.0,2,1,218.0,173.0,1890.0,-37.8142,145.0252
Yarraville,122 Blackwood St,4,casa,1606000.0,7.0,3013.0,2,3,455.0,178.0,1890.0,-37.8177,144.8839
Malvern,35 Dixon St,3,casa,2050000.0,7.4,3144.0,2,1,231.0,180.0,1890.0,-37.8607,145.0373
Malvern,20 Gordon Gr,4,casa,1965000.0,7.4,3144.0,2,1,300.0,185.0,1890.0,-37.8638,145.0298
Northcote,13 Hawthorn Rd,4,casa,2175000.0,5.5,3070.0,2,1,573.0,186.0,1890.0,-37.7707,144.9924
Camberwell,28 Brinsley Rd,4,casa,2650000.0,7.8,3124.0,2,1,652.0,189.0,1890.0,-37.8286,145.0686
South Melbourne,248 Montague St,3,casa,1650000.0,2.1,3205.0,2,0,204.0,195.0,1890.0,-37.8357,144.9531
Box Hill,55 Albion Rd,4,casa,1600000.0,13.1,3128.0,2,1,692.0,195.0,1890.0,-37.8247,145.1281
Albert Park,112 Beaconsfield Pde,3,casa,2850000.0,3.3,3206.0,2,0,211.0,198.0,1890.0,-37.8481,144.9499
Yarraville,54 Tongue St,4,casa,2035000.0,7.0,3013.0,2,0,607.0,201.0,1890.0,-37.80978,144.89252
St Kilda,12 Gurner St,4,casa,1900000.0,6.1,3182.0,2,2,507.0,202.0,1890.0,-37.8616,144.9807
Fitzroy North,74 Barkly St,4,casa,1950000.0,3.5,3068.0,2,2,233.0,216.0,1890.0,-37.7786,144.9818
Newport,74 Alma Tce,4,casa,2337000.0,8.4,3015.0,2,3,580.0,222.0,1890.0,-37.83699,144.8698
Kew,176 Cotham Rd,4,casa,2625000.0,5.6,3101.0,2,2,717.0,225.0,1890.0,-37.8083,145.0418
Kew,68 Mary St,5,casa,2425000.0,5.6,3101.0,2,2,534.0,237.0,1890.0,-37.8044,145.0386
Kew,80 Brougham St,4,casa,2850000.0,5.6,3101.0,2,4,690.0,248.0,1890.0,-37.8037,145.0308
Camberwell,6 Kingsley St,4,casa,3550000.0,7.8,3124.0,2,1,790.0,251.0,1890.0,-37.82694,145.06607
Essendon,242 Buckley St,3,casa,1100000.0,8.0,3040.0,2,1,789.0,257.0,1890.0,-37.7558,144.9073
Brunswick,222 Barkly St,5,casa,2500000.0,5.2,3056.0,2,2,555.0,266.0,1890.0,-37.7767,144.9645
Hawthorn,4 Ardene Ct,5,casa,3950000.0,4.6,3122.0,2,3,1236.0,340.0,1890.0,-37.8257,145.0321
Windsor,77 Raleigh St,3,casa,1910000.0,5.1,3181.0,3,1,143.0,89.0,1890.0,-37.8525,144.9881
Canterbury,42 Warburton Rd,3,casa,2200000.0,9.0,3126.0,3,2,468.0,148.0,1890.0,-37.8264,145.0741
Williamstown,19 Verdon St,4,casa,2910000.0,8.0,3016.0,3,0,338.0,196.0,1890.0,-37.8633,144.8963
Brunswick,25 Hardy St,4,casa,1500000.0,5.2,3056.0,3,1,365.0,209.0,1890.0,-37.7624,144.9671
Seddon,93 Williamstown Rd,5,casa,1275000.0,6.6,3011.0,3,1,386.0,218.0,1890.0,-37.8078,144.8846
Richmond,78 Davison St,5,casa,3200000.0,2.6,3121.0,3,3,618.0,260.0,1890.0,-37.8157,145.0073
Fitzroy,17 Bell St,4,casa,4011000.0,1.6,3065.0,3,2,286.0,275.0,1890.0,-37.7999,144.9755
Brighton,82 New St,5,casa,3700000.0,11.2,3186.0,3,4,1572.0,305.0,1890.0,-37.9233,144.9944
Kew,49 Princess St,4,casa,2250000.0,5.6,3101.0,3,2,741.0,307.0,1890.0,-37.8043,145.0291
Malvern,18 Soudan St,5,casa,4240000.0,7.4,3144.0,3,3,580.0,320.0,1890.0,-37.8653,145.0304
Kew,15 Barry St,6,casa,6500000.0,5.6,3101.0,6,3,1334.0,365.0,1890.0,-37.8029,145.0267
South Yarra,366 Toorak Rd,3,casa,1700000.0,3.3,3141.0,1,1,178.0,172.0,1894.0,-37.8404,145.0022
Windsor,344 High St,3,casa,2302000.0,5.1,3181.0,1,4,440.0,144.0,1895.0,-37.8528,144.9994
Camberwell,18 Russell St,4,casa,2600000.0,7.8,3124.0,2,2,600.0,232.0,1897.0,-37.8237,145.0638
Newport,10 Crawford St,1,casa,643700.0,8.4,3015.0,1,0,129.0,45.0,1900.0,-37.8491,144.8903
Albert Park,9 Durham St,1,casa,985000.0,3.3,3206.0,1,0,81.0,54.0,1900.0,-37.8411,144.9497
Richmond,6 Berry St,2,casa,900000.0,2.6,3121.0,1,0,95.0,63.0,1900.0,-37.8193,144.9976
St Kilda,27 Bath St,2,casa,875000.0,6.1,3182.0,1,1,123.0,68.0,1900.0,-37.8641,144.9866
Port Melbourne,39 Heath St,2,casa,900000.0,3.8,3207.0,1,0,124.0,70.0,1900.0,-37.8356,144.9439
Collingwood,130 Keele St,2,casa,890000.0,1.6,3066.0,1,1,178.0,70.0,1900.0,-37.7974,144.9915
Hawthorn East,45 Roseberry St,2,casa,1335000.0,7.5,3123.0,1,0,229.0,70.0,1900.0,-37.8265,145.0484
Ascot Vale,1/91 Epsom Rd,2,kitnet,545000.0,5.9,3032.0,1,2,194.0,71.0,1900.0,-37.7772,144.9118
Richmond,50 Canterbury St,2,casa,827500.0,2.6,3121.0,1,0,127.0,72.0,1900.0,-37.8251,145.0063
Kensington,70 Hardiman St,2,casa,960000.0,4.2,3031.0,1,1,174.0,72.0,1900.0,-37.7959,144.9343
Richmond,24 The Crofts,2,casa,1125000.0,2.6,3121.0,1,0,103.0,74.0,1900.0,-37.8199,144.9911
South Melbourne,22A Cobden St,2,casa,930000.0,2.1,3205.0,1,0,115.0,76.0,1900.0,-37.8345,144.9685
Ascot Vale,73 Kent St,2,casa,760000.0,5.9,3032.0,1,1,124.0,77.0,1900.0,-37.7807,144.9285
Richmond,2 Moore St,1,casa,911000.0,2.6,3121.0,1,0,126.0,77.0,1900.0,-37.82105,145.00643
South Yarra,39 Hardy St,2,casa,1130000.0,3.3,3141.0,1,1,132.0,77.0,1900.0,-37.8446,144.9896
Burnley,148 Stawell St,2,casa,1202500.0,3.5,3121.0,1,1,149.0,77.0,1900.0,-37.8287,145.0089
Flemington,107 Shields St,2,casa,918000.0,4.4,3031.0,1,0,136.0,78.0,1900.0,-37.7839,144.9343
Prahran,84 York St,2,casa,1305000.0,4.5,3181.0,1,1,131.0,79.0,1900.0,-37.8479,144.9988
Abbotsford,25 Bloomburg St,2,casa,1035000.0,2.5,3067.0,1,0,156.0,79.0,1900.0,-37.8079,144.9934
Middle Park,158 Neville St,2,casa,1300000.0,4.1,3206.0,1,0,132.0,80.0,1900.0,-37.84684,144.9604
Richmond,52 Hunter St,2,casa,1150000.0,2.6,3121.0,1,0,156.0,80.0,1900.0,-37.8209,145.0052
Footscray,27 MacPherson St,2,casa,882000.0,6.4,3011.0,1,0,172.0,80.0,1900.0,-37.7936,144.88878
Albert Park,396 Montague St,2,casa,1436000.0,3.3,3206.0,1,0,130.0,81.0,1900.0,-37.8431,144.9565
Seddon,80 Gamon St,2,casa,815000.0,6.6,3011.0,1,0,172.0,81.0,1900.0,-37.81,144.8896
Richmond,81 Erin St,3,casa,1260000.0,2.6,3121.0,1,0,203.0,81.0,1900.0,-37.8166,144.9945
Maidstone,67 Norfolk St,3,casa,840000.0,9.2,3012.0,1,1,584.0,81.0,1900.0,-37.7885,144.8771
Albert Park,105 Kerferd Rd,2,casa,1275000.0,3.3,3206.0,1,0,120.0,82.0,1900.0,-37.8459,144.9555
South Yarra,14 Moore St,2,casa,1214000.0,3.3,3141.0,1,0,161.0,82.0,1900.0,-37.84228,144.98676
Abbotsford,200 Nicholson St,2,casa,1012500.0,2.5,3067.0,1,0,182.0,82.0,1900.0,-37.8021,144.9976
Prahran,19 Packington Pl,2,casa,1055000.0,4.5,3181.0,1,0,203.0,85.0,1900.0,-37.8557,145.0053
Moonee Ponds,20 Huntly St,2,casa,970000.0,6.9,3039.0,1,2,272.0,85.0,1900.0,-37.76192,144.93527
South Yarra,33 Tyrone St,2,casa,1200000.0,3.3,3141.0,1,1,163.0,86.0,1900.0,-37.8446,144.9879
Ascot Vale,51 Francis St,2,casa,770000.0,5.9,3032.0,1,1,226.0,87.0,1900.0,-37.7774,144.9186
Richmond,308 Lennox St,2,casa,1220000.0,2.6,3121.0,1,1,166.0,88.0,1900.0,-37.8245,144.9933
Newport,65 Alma Tce,2,casa,890000.0,8.4,3015.0,1,0,168.0,90.0,1900.0,-37.8475,144.8897
Kensington,123 Rankins Rd,2,casa,850000.0,4.2,3031.0,1,1,169.0,90.0,1900.0,-37.7925,144.9315
Richmond,58 Rooney St,2,casa,1045000.0,2.6,3121.0,1,2,200.0,90.0,1900.0,-37.8294,145.0029
Hawthorn,44 College St,3,casa,1300000.0,4.6,3122.0,1,0,232.0,90.0,1900.0,-37.8173,145.0252
Abbotsford,47 Studley St,2,casa,1180000.0,2.5,3067.0,1,0,162.0,91.0,1900.0,-37.8016,144.9956
Richmond,32 Duke St,2,casa,1025000.0,2.6,3121.0,1,1,169.0,92.0,1900.0,-37.8235,145.0035
Richmond,13 McKay St,3,casa,1150000.0,2.6,3121.0,1,0,176.0,92.0,1900.0,-37.8116,145.0042
Hawthorn,4A Simpson Pl,3,casa,1180000.0,4.6,3122.0,1,3,218.0,92.0,1900.0,-37.8176,145.0204
Footscray,25 Southampton St,3,casa,840000.0,6.4,3011.0,1,0,164.0,93.0,1900.0,-37.7959,144.8863
Brunswick,246 Victoria St,2,casa,890000.0,5.2,3056.0,1,1,199.0,93.0,1900.0,-37.7676,144.9659
Port Melbourne,44 Cruikshank St,2,casa,1350000.0,3.8,3207.0,1,1,195.0,94.0,1900.0,-37.8395,144.9462
Richmond,30 Cameron St,3,casa,1474000.0,2.6,3121.0,1,0,238.0,94.0,1900.0,-37.8167,144.9977
Footscray,7 Essex St,2,casa,747000.0,6.4,3011.0,1,1,320.0,94.0,1900.0,-37.7964,144.8871
Maidstone,67 Ballarat Rd,2,casa,646000.0,9.2,3012.0,1,2,270.0,95.0,1900.0,-37.7871,144.8791
Newport,14 Oakbank St,2,casa,896000.0,8.4,3015.0,1,0,297.0,95.0,1900.0,-37.8501,144.8931
Clifton Hill,13 Caroline St,3,casa,1060000.0,3.4,3068.0,1,0,193.0,98.0,1900.0,-37.7899,144.9984
Brunswick West,12 Hamilton St,2,casa,820000.0,5.9,3055.0,1,1,206.0,98.0,1900.0,-37.7604,144.9488
Footscray,224 Ballarat Rd,2,casa,690500.0,6.4,3011.0,1,1,212.0,98.0,1900.0,-37.7903,144.8879
Kensington,94 McConnell St,2,casa,1031000.0,4.2,3031.0,1,1,163.0,99.0,1900.0,-37.7929,144.9287
Collingwood,71 Palmer St,2,casa,888000.0,1.6,3066.0,1,0,112.0,100.0,1900.0,-37.80012,144.99007
Richmond,5 Union St,3,casa,1520000.0,2.6,3121.0,1,2,248.0,100.0,1900.0,-37.8185,144.9935
Malvern,7 Hunter St,2,casa,1326000.0,7.4,3144.0,1,0,254.0,100.0,1900.0,-37.8674,145.0355
Footscray,47 Shepherd St,3,casa,871000.0,6.4,3011.0,1,1,267.0,101.0,1900.0,-37.79507,144.8936
Ascot Vale,4 The Parade,2,casa,950000.0,5.9,3032.0,1,1,173.0,102.0,1900.0,-37.7731,144.9206
Richmond,19 Dickens St,3,casa,1270000.0,2.6,3121.0,1,1,181.0,102.0,1900.0,-37.8203,145.0092
South Melbourne,25 Mountain St,3,casa,1270000.0,2.1,3205.0,1,0,149.0,104.0,1900.0,-37.8374,144.9495
Kensington,67 Collett St,3,casa,1010000.0,4.2,3031.0,1,0,234.0,104.0,1900.0,-37.7923,144.9332
Richmond,247 Church St,3,casa,1010000.0,2.6,3121.0,1,1,199.0,105.0,1900.0,-37.8193,144.9993
Armadale,14 New St,3,casa,1300000.0,6.3,3143.0,1,2,212.0,106.0,1900.0,-37.8542,145.0149
Hawthorn,31 Smart St,2,casa,1800000.0,4.6,3122.0,1,0,221.0,106.0,1900.0,-37.81633,145.04053000000005
Collingwood,6 Forest St,2,casa,981000.0,1.6,3066.0,1,0,188.0,107.0,1900.0,-37.7964,144.9923
Albert Park,29 Faussett St,2,casa,2120000.0,3.3,3206.0,1,1,199.0,107.0,1900.0,-37.8422,144.9554
Moonee Ponds,82 Argyle St,3,casa,990000.0,6.9,3039.0,1,2,328.0,107.0,1900.0,-37.7658,144.9077
Footscray,69 MacPherson St,2,casa,757500.0,6.4,3011.0,1,0,258.0,108.0,1900.0,-37.7959,144.8901
Armadale,63 Denbigh Rd,3,casa,1900000.0,6.3,3143.0,1,2,328.0,108.0,1900.0,-37.8559,145.0158
Fitzroy,107 Cecil St,2,casa,1300000.0,1.6,3065.0,1,1,157.0,110.0,1900.0,-37.7941,144.98
Richmond,8 George St,2,casa,1189000.0,2.6,3121.0,1,0,158.0,110.0,1900.0,-37.8232,145.0002
Seddon,22 Alfred St,3,casa,1080000.0,6.6,3011.0,1,0,234.0,111.0,1900.0,-37.8051,144.8858
Brunswick,217 Victoria St,3,casa,1210000.0,5.2,3056.0,1,0,282.0,112.0,1900.0,-37.76735,144.96598
Newport,7 Effingham Rd,3,casa,1305000.0,8.4,3015.0,1,0,357.0,112.0,1900.0,-37.8459,144.8877
Kensington,72 Bayswater Rd,3,casa,1271000.0,4.2,3031.0,1,1,284.0,113.0,1900.0,-37.7938,144.9228
Richmond,32 Cameron St,3,casa,1555000.0,2.6,3121.0,1,0,250.0,115.0,1900.0,-37.8167,144.9978
Spotswood,14 Robb St,3,casa,1100000.0,7.7,3015.0,1,0,305.0,115.0,1900.0,-37.8288,144.96669
Hawthorn East,20 Stewart St,3,casa,1650000.0,7.5,3123.0,1,1,354.0,115.0,1900.0,-37.8225,145.0551
Richmond,36 Elm Gr,3,casa,1695000.0,2.6,3121.0,1,3,210.0,118.0,1900.0,-37.8247,145.0001
Newport,73 Farm St,3,casa,923000.0,8.4,3015.0,1,0,221.0,118.0,1900.0,-37.8415,144.8852
Elsternwick,12 Rusden St,3,casa,965000.0,8.5,3185.0,1,2,275.0,119.0,1900.0,-37.8859,144.9994
Yarraville,30 Simpson St,3,casa,1460000.0,7.0,3013.0,1,2,463.0,119.0,1900.0,-37.8172,144.8924
Kensington,39 Henry St,3,casa,1455000.0,4.2,3031.0,1,0,275.0,120.0,1900.0,-37.7954,144.9274
Williamstown,8 Princes St,3,casa,1150000.0,8.0,3016.0,1,0,308.0,120.0,1900.0,-37.85363,144.88842
Brunswick East,156 Glenlyon Rd,3,casa,1050000.0,4.5,3057.0,1,1,279.0,122.0,1900.0,-37.7729,144.9722
Middle Park,141 Richardson St,3,casa,1910000.0,4.1,3206.0,1,3,217.0,125.0,1900.0,-37.8474,144.9582
Hawthorn,5 Wattle Gr,3,casa,1855000.0,4.6,3122.0,1,1,304.0,125.0,1900.0,-37.8253,145.0287
Brunswick,19 Horne St,3,casa,1550000.0,5.2,3056.0,1,1,346.0,126.0,1900.0,-37.7738,144.9695
Fitzroy North,780 Brunswick St,3,casa,1371000.0,3.5,3068.0,1,1,197.0,128.0,1900.0,-37.7835,144.9816
Richmond,255 Coppin St,3,casa,1275000.0,2.6,3121.0,1,2,204.0,128.0,1900.0,-37.8285,145.0022
Richmond,30 Rowena Pde,3,casa,1345000.0,2.6,3121.0,1,1,209.0,128.0,1900.0,-37.8206,144.9913
Footscray,95 Gordon St,3,casa,780000.0,6.4,3011.0,1,2,323.0,129.0,1900.0,-37.7935,144.8893
Brunswick,311 Albion St,3,casa,825000.0,5.2,3056.0,1,1,210.0,130.0,1900.0,-37.7597,144.9545
Kew,33 Disraeli St,3,casa,1440000.0,5.6,3101.0,1,1,298.0,130.0,1900.0,-37.8021,145.0391
Coburg,11 Station St,3,casa,725000.0,7.8,3058.0,1,0,238.0,131.0,1900.0,-37.7539,144.9612
Ascot Vale,78 The Parade,3,casa,1440000.0,5.9,3032.0,1,1,487.0,131.0,1900.0,-37.7725,144.9146
Middle Park,198 Page St,3,casa,2350000.0,4.1,3206.0,1,2,277.0,132.0,1900.0,-37.8516,144.9624
Brunswick West,121 Pearson St,3,casa,1300000.0,5.9,3055.0,1,2,364.0,135.0,1900.0,-37.7618,144.9497
Essendon,42 Fitzgerald Rd,3,casa,1131000.0,8.0,3040.0,1,1,387.0,135.0,1900.0,-37.75499,144.91593999999995
Seddon,54 Charles St,3,casa,1032000.0,6.6,3011.0,1,0,224.0,136.0,1900.0,-37.8067,144.8934
Brunswick,129 Albion St,4,casa,1115000.0,5.2,3056.0,1,0,264.0,139.0,1900.0,-37.7611,144.9677
Richmond,25 Egan St,3,casa,1074000.0,2.6,3121.0,1,0,245.0,140.0,1900.0,-37.8138,144.9921
Flemington,11 Finsbury St,3,casa,1130000.0,4.4,3031.0,1,0,294.0,140.0,1900.0,-37.7856,144.9292
Northcote,24 Barry St,3,casa,1715000.0,5.5,3070.0,1,1,407.0,143.0,1900.0,-37.7799,144.9937
Surrey Hills,95 Guildford Rd,4,casa,1700000.0,11.2,3127.0,1,1,579.0,143.0,1900.0,-37.8224,145.0959
Richmond,25 Palmer St,4,casa,1775000.0,2.6,3121.0,1,0,434.0,144.0,1900.0,-37.8185,145.0061
Essendon,7 Hilda St,3,casa,1150000.0,8.0,3040.0,1,0,300.0,145.0,1900.0,-37.7548,144.9315
Williamstown,16 Princes St,4,casa,1126000.0,8.0,3016.0,1,1,307.0,150.0,1900.0,-37.8525,144.8945
Moonee Ponds,35 Athol St,3,casa,1425000.0,6.9,3039.0,1,1,526.0,159.0,1900.0,-37.7701,144.9172
Prahran,48 Wrights Tce,2,casa,1303000.0,4.5,3181.0,1,0,288.0,160.0,1900.0,-37.8512,145.0053
Armadale,25 Llaneast St,4,casa,2200000.0,6.3,3143.0,1,2,495.0,163.0,1900.0,-37.8613,145.0264
Northcote,155 Westbourne Gr,3,casa,1510000.0,5.5,3070.0,1,3,327.0,165.0,1900.0,-37.7741,144.9971
Ascot Vale,1 Bloomfield Rd,3,casa,1305000.0,5.9,3032.0,1,1,278.0,166.0,1900.0,-37.7768,144.9223
Ascot Vale,10 McCully St,3,casa,1377000.0,5.9,3032.0,1,1,417.0,168.0,1900.0,-37.7756,144.9208
Moonee Ponds,35 Addison St,4,casa,1637000.0,6.9,3039.0,1,3,539.0,190.0,1900.0,-37.7701,144.9287
Essendon,33 McCarron Pde,4,casa,1635000.0,8.0,3040.0,1,2,638.0,227.0,1900.0,-37.7523,144.9052
Essendon,33 McCarron Pde,4,casa,1535000.0,8.0,3040.0,1,2,638.0,227.0,1900.0,-37.7523,144.9052
Richmond,43 Gardner St,2,casa,1050000.0,2.6,3121.0,1,0,134.0,63.7,1900.0,-37.82499,145.0104
Richmond,40 York St,3,casa,1550000.0,2.6,3121.0,2,1,131.0,76.0,1900.0,-37.8132,144.9929
Prahran,75 Pridham St,3,casa,1220000.0,4.5,3181.0,2,1,112.0,100.0,1900.0,-37.8517,145.0056
Middle Park,287 Richardson St,4,casa,3120000.0,4.1,3206.0,2,1,182.0,100.0,1900.0,-37.8518,144.9663
Armadale,10 William St,1,casa,1435000.0,6.3,3143.0,2,1,144.0,107.0,1900.0,-37.8564,145.0228
Richmond,320 Church St,3,casa,1651000.0,2.6,3121.0,2,1,192.0,111.0,1900.0,-37.8212,144.9985
Richmond,29 Westbank Tce,3,casa,1850000.0,2.6,3121.0,2,1,203.0,112.0,1900.0,-37.8214,145.0132
Port Melbourne,95 Heath St,3,casa,1560000.0,3.8,3207.0,2,2,241.0,131.0,1900.0,-37.8346,144.9448
Coburg,34 Reynard St,4,casa,1005000.0,7.8,3058.0,2,1,172.0,135.0,1900.0,-37.74833,144.96336000000005
Abbotsford,3/72 Charles St,4,casa,1330000.0,2.5,3067.0,2,2,780.0,135.0,1900.0,-37.8073,144.9952
Elwood,23 Byron St,3,casa,1520000.0,7.7,3184.0,2,1,362.0,138.0,1900.0,-37.87891,144.99331999999995
Prahran,62 Pridham St,3,casa,1612000.0,4.5,3181.0,2,0,146.0,139.0,1900.0,-37.8519,145.0055
Brunswick West,10 Shamrock St,3,casa,1100000.0,5.9,3055.0,2,1,169.0,139.0,1900.0,-37.75852,144.95039
Williamstown,33 Cecil St,3,casa,1310000.0,8.0,3016.0,2,1,185.0,139.0,1900.0,-37.8664,144.9072
Toorak,13 Bruce St,3,casa,1900000.0,4.6,3142.0,2,1,268.0,139.0,1900.0,-37.8369,145.0072
Seddon,44 Alexander St,3,casa,1075000.0,6.6,3011.0,2,1,306.0,140.0,1900.0,-37.8038,144.8896
Richmond,134 Coppin St,3,casa,1456000.0,2.6,3121.0,2,1,157.0,141.0,1900.0,-37.8225,145.0029
Richmond,8 Survey St,4,casa,1591000.0,2.6,3121.0,2,1,263.0,145.0,1900.0,-37.8261,145.0127
Coburg,3 Beckwith St,3,casa,1250000.0,7.8,3058.0,2,2,500.0,148.0,1900.0,-37.7382,144.96526
Flemington,29 Finsbury St,3,casa,1100000.0,4.4,3031.0,2,0,179.0,150.0,1900.0,-37.7857,144.9305
Thornbury,42 Mansfield St,4,casa,1478000.0,6.5,3071.0,2,0,387.0,152.0,1900.0,-37.7569,145.0041
Yarraville,29 Frederick St,4,casa,1200000.0,7.0,3013.0,2,2,417.0,157.0,1900.0,-37.8197,144.8969
Port Melbourne,255 Ross St,4,casa,1820000.0,3.8,3207.0,2,1,212.0,158.0,1900.0,-37.8331,144.9412
Newport,8 Agg St,3,casa,993000.0,8.4,3015.0,2,2,348.0,158.0,1900.0,-37.8435,144.8788
Ascot Vale,43 Bloomfield Rd,4,casa,1430000.0,5.9,3032.0,2,0,418.0,158.0,1900.0,-37.7766,144.9187
Carlton North,292 Amess St,4,casa,1950000.0,3.2,3054.0,2,2,207.0,162.0,1900.0,-37.7804,144.9748
Richmond,288 Church St,3,casa,1555000.0,2.6,3121.0,2,1,189.0,164.0,1900.0,-37.82,144.9987
Fitzroy North,70 Park St,4,casa,1785000.0,3.5,3068.0,2,1,188.0,165.0,1900.0,-37.7815,144.9869
Hawthorn East,36 Invermay Gr,4,casa,2381000.0,7.5,3123.0,2,2,457.0,166.0,1900.0,-37.8332,145.0461
South Melbourne,20 Glover St,3,casa,2240000.0,2.1,3205.0,2,1,197.0,168.0,1900.0,-37.80461,144.89673
Ascot Vale,44 Walter St,3,casa,1381500.0,5.9,3032.0,2,2,416.0,168.0,1900.0,-37.7727,144.9055
Essendon,65 Napier St,3,casa,1467000.0,8.0,3040.0,2,2,188.0,171.0,1900.0,-37.7532,144.9178
Carlton North,392 Station St,2,casa,2400000.0,3.2,3054.0,2,0,413.0,172.0,1900.0,-37.7875,144.9759
Balaclava,18 Linton St,4,casa,1819000.0,6.6,3183.0,2,1,244.0,180.0,1900.0,-37.8668,144.9928
Brunswick,177 Barkly St,4,casa,1800000.0,5.2,3056.0,2,3,271.0,180.0,1900.0,-37.7769,144.9691
Travancore,110 Baroda St,4,casa,1562000.0,5.3,3032.0,2,1,621.0,192.0,1900.0,-37.7778,144.9346
Richmond,46 Park Gr,4,casa,1800000.0,2.6,3121.0,2,0,288.0,193.0,1900.0,-37.8268,145.0129
Hawthorn East,4 Temple St,6,casa,1666000.0,7.5,3123.0,2,0,350.0,198.0,1900.0,-37.8219,145.0556
Elsternwick,87 Orrong Rd,3,casa,1750000.0,8.5,3185.0,2,2,517.0,207.0,1900.0,-37.8813,145.0063
Maribyrnong,33 Newstead St,3,casa,1320000.0,8.7,3032.0,2,2,645.0,211.0,1900.0,-37.7662,144.8971
Williamstown,33 Hannan St,4,casa,2230000.0,8.0,3016.0,2,2,782.0,212.0,1900.0,-37.8647,144.8867
Northcote,29 Westgarth St,4,casa,1700000.0,5.5,3070.0,2,1,415.0,218.0,1900.0,-37.7807,144.9948
Hawthorn East,91 Rathmines Rd,4,casa,2350000.0,7.5,3123.0,2,2,556.0,220.0,1900.0,-37.8204,145.0516
Oakleigh,110 Atkinson St,4,casa,1840000.0,14.0,3166.0,2,2,598.0,222.0,1900.0,-37.89989,145.10143
Armadale,35 Northcote Rd,4,casa,2801000.0,6.3,3143.0,2,2,624.0,222.0,1900.0,-37.8536,145.0173
Northcote,157 Bastings St,5,casa,1750000.0,5.5,3070.0,2,0,406.0,225.0,1900.0,-37.76338,144.99504
Kew,17 Hartington St,5,casa,2800000.0,5.6,3101.0,2,3,920.0,241.0,1900.0,-37.8017,145.0419
Ascot Vale,26 Ayr St,6,casa,1430000.0,5.9,3032.0,2,1,461.0,286.0,1900.0,-37.78,144.9295
Port Melbourne,130 Clark St,4,casa,2700000.0,3.8,3207.0,3,2,317.0,156.0,1900.0,-37.84441,144.9378
Elwood,78 Dickens St,4,casa,2200000.0,7.7,3184.0,3,2,348.0,218.0,1900.0,-37.8748,144.9778
Coburg,144 The Avenue,4,casa,1250000.0,7.8,3058.0,3,1,515.0,249.0,1900.0,-37.7537,144.9766
Ascot Vale,44 The Parade,4,casa,1850000.0,5.9,3032.0,3,1,478.0,270.0,1900.0,-37.7729,144.9179
Surrey Hills,8 Durham Rd,4,casa,2370000.0,11.2,3127.0,3,2,773.0,300.0,1900.0,-37.83472,145.09134
Moonee Ponds,25 Mantell St,4,casa,2400000.0,6.9,3039.0,4,2,636.0,308.0,1900.0,-37.7629,144.9157
St Kilda,10 Charlotte Pl,5,casa,4400000.0,6.1,3182.0,4,4,657.0,312.0,1900.0,-37.8582,144.9913
Hawthorn East,63 Victoria Rd,5,casa,2250000.0,7.5,3123.0,2,2,452.0,319.0,1902.0,-37.8223,145.0494
Mont Albert,72 Churchill St,4,casa,3900000.0,11.8,3127.0,2,6,2187.0,327.0,1903.0,-37.8186,145.1134
Clifton Hill,32 Caroline St,4,casa,3010000.0,3.4,3068.0,3,2,382.0,250.0,1903.0,-37.7897,144.9992
Ascot Vale,120 Epsom Rd,3,casa,970000.0,5.9,3032.0,1,2,350.0,125.0,1904.0,-37.7759,144.91
Clifton Hill,487 Hoddle St,3,casa,1652500.0,3.4,3068.0,1,0,276.0,170.0,1904.0,-37.7933,144.9938
Hampton,36 Thomas St,4,casa,3250000.0,13.7,3188.0,3,2,928.0,300.0,1904.0,-37.9389,145.0062
Prahran,44 Spring St,1,casa,860000.0,4.5,3181.0,1,0,108.0,54.0,1905.0,-37.85125,144.99028
Port Melbourne,230 Nott St,3,casa,1384000.0,3.8,3207.0,1,0,184.0,100.0,1905.0,-37.8348,144.9443
Brunswick,234 Victoria St,2,casa,1026000.0,5.2,3056.0,1,0,225.0,108.0,1905.0,-37.7676,144.9665
Hawthorn,95 Church St,3,casa,1525000.0,4.6,3122.0,1,0,269.0,134.0,1905.0,-37.81624,145.03671
Fitzroy North,55 Seacombe St,3,casa,1450000.0,3.5,3068.0,2,1,118.0,103.0,1905.0,-37.7839,144.9807
Box Hill,18 Glenmore St,4,casa,1560000.0,13.1,3128.0,2,3,729.0,167.0,1905.0,-37.8233,145.1267
Hawthorn East,336 Riversdale Rd,4,casa,2450000.0,7.5,3123.0,2,1,697.0,172.0,1905.0,-37.8307,145.0498
Elsternwick,4 Buxton St,3,casa,1755000.0,8.5,3185.0,2,1,391.0,173.0,1905.0,-37.8885,145.0133
Elsternwick,21 Liscard St,3,casa,1800000.0,8.5,3185.0,2,2,492.0,181.0,1905.0,-37.8789,145.0048
Carlton North,235 Amess St,4,casa,3450000.0,3.2,3054.0,2,1,515.0,203.0,1905.0,-37.78167,144.97415
Hawthorn,4 Bowen St,4,casa,2670000.0,4.6,3122.0,2,1,336.0,235.0,1905.0,-37.8183,145.0371
Brighton,133 Head St,4,casa,2905000.0,11.2,3186.0,3,1,487.0,260.0,1905.0,-37.8926,144.9991
Moonee Ponds,4 Addison St,4,casa,1530000.0,6.9,3039.0,2,1,431.0,152.0,1906.0,-37.7702,144.9268
Elsternwick,2 Park St,3,casa,2345000.0,8.5,3185.0,2,1,419.0,204.0,1908.0,-37.8817,145.0126
Fitzroy North,50 Freeman St,2,casa,870000.0,3.5,3068.0,1,0,107.0,64.0,1910.0,-37.7898,144.9794
Brunswick,35 Percy St,2,casa,705000.0,5.2,3056.0,1,1,161.0,68.0,1910.0,-37.7646,144.9586
Port Melbourne,8 Garton St,2,casa,1080000.0,3.8,3207.0,1,0,105.0,70.0,1910.0,-37.8338,144.9474
Port Melbourne,172 Albert St,2,casa,1060000.0,3.8,3207.0,1,0,106.0,70.0,1910.0,-37.8346,144.9373
Port Melbourne,243 Graham St,2,casa,1101000.0,3.8,3207.0,1,0,152.0,71.0,1910.0,-37.8393,144.9386
Middle Park,33 Nimmo St,2,casa,1920000.0,4.1,3206.0,1,0,152.0,82.0,1910.0,-37.8498,144.9628
Clifton Hill,85 Roseneath St,2,casa,1105000.0,3.4,3068.0,1,1,185.0,84.0,1910.0,-37.7927,144.9981
Preston,13 Garnet St,2,casa,700000.0,8.8,3072.0,1,1,214.0,85.0,1910.0,-37.7462,145.0044
Brunswick West,201 Hope St,2,casa,711000.0,5.9,3055.0,1,1,177.0,87.0,1910.0,-37.7619,144.9412
Brunswick,105 Dawson St,2,casa,860000.0,5.2,3056.0,1,1,298.0,88.0,1910.0,-37.7704,144.9504
South Yarra,9 Moore St,3,casa,1125000.0,3.3,3141.0,1,0,146.0,89.0,1910.0,-37.8454,144.9888
Footscray,167 Gordon St,2,casa,711000.0,6.4,3011.0,1,2,253.0,90.0,1910.0,-37.7968,144.8887
Kew,75 Earl St,2,casa,2875000.0,5.6,3101.0,1,1,1065.0,90.0,1910.0,-37.7944,145.0339
Brunswick,39 Eveline St,3,casa,1125000.0,5.2,3056.0,1,1,278.0,91.0,1910.0,-37.7701,144.9633
Richmond,43 Type St,3,casa,1270000.0,2.6,3121.0,1,1,152.0,92.0,1910.0,-37.8219,145.0096
Northcote,19 Hunter St,2,casa,890000.0,5.5,3070.0,1,1,225.0,92.0,1910.0,-37.7663,145.0009
Coburg,53 Hawthorn St,2,casa,903000.0,7.8,3058.0,1,1,253.0,94.0,1910.0,-37.7484,144.9521
Brunswick,77 Blyth St,3,casa,950000.0,5.2,3056.0,1,0,170.0,96.0,1910.0,-37.7661,144.9691
Yarraville,2 Hood St,4,casa,1158000.0,7.0,3013.0,1,3,411.0,96.0,1910.0,-37.8117,144.8873
Clifton Hill,413a Wellington St,2,casa,1209000.0,3.4,3068.0,1,1,140.0,97.0,1910.0,-37.7919,144.9884
St Kilda,34 Acland St,2,casa,1301000.0,6.1,3182.0,1,1,165.0,97.0,1910.0,-37.86364,144.97485
Northcote,118 Roberts St,2,casa,1101000.0,5.5,3070.0,1,0,229.0,99.0,1910.0,-37.7784,145.0042
Brunswick,175 Edward St,3,casa,1261000.0,5.2,3056.0,1,1,216.0,100.0,1910.0,-37.7746,144.9697
Malvern East,11 Findon St,2,casa,1036000.0,11.2,3145.0,1,1,310.0,102.0,1910.0,-37.8717,145.0399
Seddon,16 Margaret St,3,casa,965000.0,6.6,3011.0,1,0,217.0,104.0,1910.0,-37.8037,144.8874
Yarraville,83 Tarrengower St,3,casa,1165000.0,7.0,3013.0,1,0,191.0,105.0,1910.0,-37.8175,144.8879
South Melbourne,27 Lyell St,3,casa,1820000.0,2.1,3205.0,1,1,204.0,105.0,1910.0,-37.83874,144.96398
Yarraville,5 Hood St,2,casa,1000000.0,7.0,3013.0,1,1,220.0,105.0,1910.0,-37.8115,144.8875
Northcote,6 Clarke St,3,casa,1050000.0,5.5,3070.0,1,0,158.0,106.0,1910.0,-37.7756,144.9891
Kensington,35 Henry St,3,casa,1037000.0,4.2,3031.0,1,1,188.0,106.0,1910.0,-37.7953,144.9275
Maidstone,1/166 Mitchell St,3,casa,673000.0,9.2,3012.0,1,2,285.0,107.0,1910.0,-37.7813,144.8678
Glen Iris,318 Tooronga Rd,2,casa,1250000.0,9.2,3146.0,1,2,438.0,107.0,1910.0,-37.8511,145.0428
Ascot Vale,17 Ascot St,2,casa,705000.0,5.9,3032.0,1,3,252.0,108.0,1910.0,-37.7825,144.9206
Northcote,41 Johnson St,2,casa,1340000.0,5.5,3070.0,1,1,297.0,108.0,1910.0,-37.7627,144.9986
Brunswick East,22 Hickford St,2,casa,1283000.0,4.5,3057.0,1,1,263.0,109.0,1910.0,-37.76605,144.97416
Hawthorn,6 Salisbury Gr,3,casa,1741000.0,4.6,3122.0,1,1,383.0,109.0,1910.0,-37.8155,145.0385
Coburg,29 Hardwick St,2,casa,981000.0,7.8,3058.0,1,1,263.0,114.0,1910.0,-37.7493,144.97
Preston,14 Arthur St,2,casa,1065000.0,8.8,3072.0,1,3,507.0,114.0,1910.0,-37.7437,144.9995
Footscray,120 MacPherson St,3,casa,760000.0,6.4,3011.0,1,1,265.0,115.0,1910.0,-37.7975,144.8894
Albert Park,4 Ashworth St,3,casa,1700000.0,3.3,3206.0,1,1,178.0,116.0,1910.0,-37.84732,144.9495
Ascot Vale,70 Munro St,3,casa,955000.0,5.9,3032.0,1,1,263.0,117.0,1910.0,-37.7753,144.9116
Coburg,109 Moreland Rd,3,casa,825000.0,7.8,3058.0,1,1,374.0,118.0,1910.0,-37.7561,144.9715
Burnley,12 Loyola Gr,2,casa,1231010.0,3.5,3121.0,1,2,225.0,119.0,1910.0,-37.8285,145.0125
St Kilda,66 Clyde St,2,casa,1365000.0,6.1,3182.0,1,1,361.0,123.0,1910.0,-37.8646,144.98
Prahran,117 Charles St,3,casa,1255000.0,4.5,3181.0,1,1,231.0,124.0,1910.0,-37.8467,144.9894
Surrey Hills,18 Empress Rd,2,casa,1260000.0,11.2,3127.0,1,0,269.0,124.0,1910.0,-37.82535,145.10495
Moonee Ponds,29 Winchester St,2,casa,1015000.0,6.9,3039.0,1,1,228.0,125.0,1910.0,-37.7685,144.9183
Yarraville,38 Simpson St,3,casa,1275000.0,7.0,3013.0,1,2,229.0,128.0,1910.0,-37.8172,144.8919
Surrey Hills,17 Empress Rd,3,casa,2180000.0,11.2,3127.0,1,2,441.0,128.0,1910.0,-37.8204,145.0887
Malvern,22 Milton Pde,3,casa,2415000.0,7.4,3144.0,1,3,696.0,128.0,1910.0,-37.8462,145.0386
Thornbury,45A Harold St,3,casa,1280000.0,6.5,3071.0,1,1,253.0,130.0,1910.0,-37.7566,144.9965
Hawthorn East,40 Campbell Gr,3,casa,1420000.0,7.5,3123.0,1,2,362.0,130.0,1910.0,-37.8337,145.0504
Footscray,36 Windsor St,3,casa,932000.0,6.4,3011.0,1,1,451.0,130.0,1910.0,-37.8023,144.8915
Spotswood,24 Forrest St,3,casa,927000.0,7.7,3015.0,1,0,274.0,131.0,1910.0,-37.8282,144.8856
Malvern,14 Woodmason St,3,casa,1437000.0,7.4,3144.0,1,1,313.0,132.0,1910.0,-37.8511,145.0317
Brunswick,26 Warburton St,3,casa,1340000.0,5.2,3056.0,1,1,316.0,132.0,1910.0,-37.7741,144.9703
Hawthorn,7 Colvin Gr,3,casa,1700000.0,4.6,3122.0,1,2,338.0,132.0,1910.0,-37.81389,145.04423
Yarraville,15 Ofarrell St,4,casa,1401000.0,7.0,3013.0,1,1,306.0,133.0,1910.0,-37.8102,144.8885
Moonee Ponds,37 Lennox St,3,casa,1160000.0,6.9,3039.0,1,1,449.0,133.0,1910.0,-37.7674,144.9084
Seddon,61 Station Rd,3,casa,990000.0,6.6,3011.0,1,0,371.0,134.0,1910.0,-37.8066,144.8853
Kensington,41 Barnett St,3,casa,1165000.0,4.2,3031.0,1,0,239.0,135.0,1910.0,-37.7923,144.9324
Moonee Ponds,4 Lennox St,3,casa,840000.0,6.9,3039.0,1,0,307.0,136.0,1910.0,-37.7704,144.9083
Malvern East,9 Chanak St,3,casa,1490000.0,11.2,3145.0,1,1,322.0,137.0,1910.0,-37.8726,145.0396
Moonee Ponds,38 Addison St,3,casa,1480000.0,6.9,3039.0,1,2,436.0,142.0,1910.0,-37.7704,144.9292
Preston,91 Bruce St,3,casa,1150000.0,8.8,3072.0,1,2,566.0,143.0,1910.0,-37.7418,144.9934
Moonee Ponds,50 Wilson St,4,casa,1211000.0,6.9,3039.0,1,3,477.0,146.0,1910.0,-37.7632,144.9292
Elsternwick,44 Hartington St,4,casa,1400000.0,8.5,3185.0,1,1,489.0,150.0,1910.0,-37.8916,145.0123
Box Hill,17 Combarton St,3,casa,1760000.0,13.1,3128.0,1,0,741.0,151.0,1910.0,-37.8258,145.1246
Footscray,20 Nicholson St,4,casa,1450000.0,6.4,3011.0,1,1,799.0,160.0,1910.0,-37.7958,144.9001
Carlton North,989 Drummond St,3,casa,2950000.0,3.2,3054.0,1,2,499.0,164.0,1910.0,-37.7811,144.9715
Coburg,171 Moreland Rd,4,casa,145000.0,7.8,3058.0,1,1,536.0,164.0,1910.0,-37.7555,144.9658
Brunswick West,53 Heller St,4,casa,1150000.0,5.9,3055.0,1,2,519.0,169.0,1910.0,-37.7747,144.9474
Northcote,13 Andrew St,3,casa,1900000.0,5.5,3070.0,1,1,522.0,174.0,1910.0,-37.7752,145.0032
Williamstown,54 Twyford St,3,casa,1535000.0,8.0,3016.0,1,1,507.0,186.0,1910.0,-37.8681,144.8994
West Footscray,20 Warleigh Rd,3,casa,875000.0,8.2,3012.0,2,3,336.0,94.0,1910.0,-37.7995,144.8794
Malvern,11 Eva St,3,casa,2025000.0,7.4,3144.0,2,2,396.0,105.0,1910.0,-37.8562,145.0373
Armadale,12 Willis St,3,casa,2050000.0,6.3,3143.0,2,1,205.0,116.0,1910.0,-37.8574,145.0281
Brunswick,38 Edward St,3,casa,1260000.0,5.2,3056.0,2,1,192.0,120.0,1910.0,-37.77429,144.96372
Armadale,791 High St,3,casa,1800000.0,6.3,3143.0,2,2,405.0,121.0,1910.0,-37.8545,145.0145
Yarraville,13 Simpson St,3,casa,1100000.0,7.0,3013.0,2,0,214.0,129.0,1910.0,-37.8175,144.8929
Kew,26 Queen St,3,casa,1800000.0,5.6,3101.0,2,1,336.0,139.0,1910.0,-37.8074,145.0318
Northcote,3 Brooke St,4,casa,1950000.0,5.5,3070.0,2,1,489.0,140.0,1910.0,-37.7762,145.0027
Brighton,5 Bridge St,3,casa,1650000.0,11.2,3186.0,2,1,354.0,143.0,1910.0,-37.8916,145.0017
Glen Iris,192 Tooronga Rd,4,casa,2077000.0,9.2,3146.0,2,3,553.0,143.0,1910.0,-37.8589,145.0413
Fairfield,150 Gillies St,3,casa,1250000.0,5.8,3078.0,2,0,327.0,144.0,1910.0,-37.7723,145.0179
Hawthorn,1 College St,3,casa,1560000.0,4.6,3122.0,2,0,198.0,148.0,1910.0,-37.8169,145.0234
Footscray,12 Tait St,4,casa,815000.0,6.4,3011.0,2,1,369.0,151.0,1910.0,-37.7914,144.8957
Port Melbourne,75 Swallow St,3,casa,1753000.0,3.8,3207.0,2,1,225.0,153.0,1910.0,-37.8381,144.9329
Northcote,91 Arthurton Rd,3,casa,1255000.0,5.5,3070.0,2,1,259.0,156.0,1910.0,-37.7687,144.9922
Seddon,15 Pentland Pde,4,casa,1201000.0,6.6,3011.0,2,1,299.0,158.0,1910.0,-37.8087,144.8952
Yarraville,4 Regent St,4,casa,1520000.0,7.0,3013.0,2,0,261.0,160.0,1910.0,-37.8123,144.8888
St Kilda,48 Greeves St,4,casa,2000000.0,6.1,3182.0,2,3,420.0,160.0,1910.0,-37.8667,144.9832
Moonee Ponds,25 Wilson St,4,casa,1505000.0,6.9,3039.0,2,2,441.0,164.0,1910.0,-37.7627,144.9278
Essendon,21 Miller St,3,casa,1445000.0,8.0,3040.0,2,1,400.0,168.0,1910.0,-37.7542,144.9117
Kingsville,72 Chirnside St,4,casa,1275000.0,7.8,3012.0,2,1,274.0,172.0,1910.0,-37.8078,144.8825
Ascot Vale,7 Francis St,3,casa,1380000.0,5.9,3032.0,2,2,277.0,174.0,1910.0,-37.7777,144.9221
Richmond,7 Bowen St,3,casa,2000000.0,2.6,3121.0,2,1,217.0,180.0,1910.0,-37.8158,144.9931
Ivanhoe,55 Livingstone St,4,casa,1650000.0,7.9,3079.0,2,1,589.0,185.0,1910.0,-37.7671,145.03765
Coburg,51 Gordon St,4,casa,1500000.0,7.8,3058.0,2,1,453.0,187.0,1910.0,-37.75026,144.94806
Williamstown,44 Electra St,4,casa,2165000.0,8.0,3016.0,2,2,450.0,190.0,1910.0,-37.79801,144.86677
Moonee Ponds,31 Wordsworth St,4,casa,1345000.0,6.9,3039.0,2,2,313.0,193.0,1910.0,-37.7709,144.9288
Brighton,120 Cole St,4,casa,2145000.0,11.2,3186.0,2,1,550.0,197.0,1910.0,-37.8954,145.0017
Brunswick,25 Gray St,4,casa,1755000.0,5.2,3056.0,2,1,354.0,199.0,1910.0,-37.7745,144.9523
South Yarra,76 Leopold St,3,casa,2695000.0,3.3,3141.0,2,1,215.0,200.0,1910.0,-37.8361,144.9831
Moonee Ponds,109 Waverley St,4,casa,1515000.0,6.9,3039.0,2,3,574.0,203.0,1910.0,-37.77302,144.91997
Caulfield South,364 Kooyong Rd,4,casa,1916000.0,9.3,3162.0,2,2,630.0,205.0,1910.0,-37.8894,145.0145
Albert Park,115 Page St,4,casa,4735000.0,3.3,3206.0,2,1,330.0,207.0,1910.0,-37.8477,144.9558
Abbotsford,124 Yarra St,3,casa,1876000.0,2.5,3067.0,2,0,245.0,210.0,1910.0,-37.8024,144.9993
Malvern East,24 Kerferd St,4,casa,3200000.0,11.2,3145.0,2,2,709.0,214.0,1910.0,-37.86927,145.04339
Essendon,55 Richardson St,4,casa,1800000.0,8.0,3040.0,2,2,648.0,215.0,1910.0,-37.7493,144.9112
Glen Iris,1 Maitland St,3,casa,2825000.0,9.2,3146.0,2,4,885.0,217.0,1910.0,-37.8577,145.0421
Brighton,12 May St,4,casa,2800000.0,11.2,3186.0,2,4,569.0,229.0,1910.0,-37.8962,145.0011
Canterbury,2 McGregor St,4,casa,2375000.0,9.0,3126.0,2,1,653.0,229.0,1910.0,-37.8292,145.0852
Malvern East,2 Tennyson St,4,casa,2001000.0,11.2,3145.0,2,2,526.0,243.0,1910.0,-37.8771,145.0505
Moonee Ponds,25 George St,4,casa,955000.0,6.9,3039.0,2,3,431.0,246.0,1910.0,-37.76701,144.92453
Canterbury,8 Dudley Pde,5,casa,2350000.0,9.0,3126.0,2,4,838.0,282.0,1910.0,-37.8252,145.0721
Surrey Hills,212 Union Rd,4,casa,2050000.0,11.2,3127.0,2,2,949.0,293.0,1910.0,-37.8188,145.0984
Canterbury,31 Rubens Gr,5,casa,2900000.0,9.0,3126.0,2,2,795.0,297.0,1910.0,-37.8181,145.0668
Brunswick,9 Blair St,4,casa,1802500.0,5.2,3056.0,3,1,238.0,93.0,1910.0,-37.7713,144.9643
Moonee Ponds,11 Bowen St,3,casa,930000.0,6.9,3039.0,3,1,325.0,132.0,1910.0,-37.7702,144.9091
Albert Park,55 Withers St,4,casa,2800000.0,3.3,3206.0,3,1,327.0,254.0,1910.0,-37.8467,144.9475
Glen Huntly,27 Augusta St,5,casa,2575000.0,10.4,3163.0,3,2,688.0,347.0,1910.0,-37.8921,145.0381
Balwyn,262 Union Rd,4,casa,3290000.0,9.7,3103.0,3,2,1007.0,350.0,1910.0,-37.8135,145.0995
Kew,51 Princess St,4,casa,2460000.0,5.6,3101.0,4,2,737.0,293.0,1910.0,-37.8042,145.0291
Seddon,27 thomson St,2,casa,955000.0,6.6,3011.0,1,0,148.0,72.0,1912.0,-37.8084,144.8907
Hawthorn,50 Kinkora Rd,4,casa,5050000.0,4.6,3122.0,4,2,905.0,373.0,1913.0,-37.8168,145.0321
Albert Park,46 Withers St,2,casa,1190000.0,3.3,3206.0,1,0,111.0,70.0,1915.0,-37.84453,144.94887
Elsternwick,22 Ross St,2,casa,895000.0,8.5,3185.0,1,1,147.0,81.0,1915.0,-37.8849,144.9993
Richmond,149 Mary St,3,casa,1100000.0,2.6,3121.0,1,0,162.0,81.0,1915.0,-37.8241,145.0015
St Kilda,64 Havelock St,2,casa,1200500.0,6.1,3182.0,1,0,201.0,83.0,1915.0,-37.8654,144.9809
Kensington,32 Epsom Rd,2,casa,825000.0,4.2,3031.0,1,1,211.0,88.0,1915.0,-37.7925,144.9264
Kingsville,104 Williamstown Rd,2,casa,677500.0,7.8,3012.0,1,1,224.0,89.0,1915.0,-37.8083,144.8841
Footscray,51 Lynch St,2,casa,858000.0,6.4,3011.0,1,1,313.0,93.0,1915.0,-37.7966,144.9016
Thornbury,29 Collins St,2,casa,1211000.0,6.5,3071.0,1,0,302.0,97.0,1915.0,-37.7549,145.0035
Northcote,50 Herbert St,3,casa,1300000.0,5.5,3070.0,1,0,191.0,108.0,1915.0,-37.78364000000001,145.00749
Elsternwick,31 Prentice St,3,casa,1450000.0,8.5,3185.0,1,2,351.0,108.0,1915.0,-37.8832,145.0133
Coburg,33 Wellington St,3,casa,860000.0,7.8,3058.0,1,1,283.0,109.0,1915.0,-37.7416,144.9582
Middle Park,98 Harold St,2,casa,1630000.0,4.1,3206.0,1,0,152.0,113.0,1915.0,-37.8513,144.9586
Fitzroy North,201A Clauscen St,3,casa,1286000.0,3.5,3068.0,1,0,275.0,116.0,1915.0,-37.7779,144.9862
Brunswick,270 Albion St,3,casa,880000.0,5.2,3056.0,1,1,264.0,117.0,1915.0,-37.7603,144.9573
Prahran,5 Pickford St,2,casa,1582000.0,4.5,3181.0,1,0,214.0,122.0,1915.0,-37.8572,145.0066
Moonee Ponds,101 Holmes Rd,4,casa,1120000.0,6.9,3039.0,1,1,571.0,138.0,1915.0,-37.7659,144.9116
Brighton,147 North Rd,2,apartamento,975000.0,11.2,3186.0,1,1,444.0,182.0,1915.0,-37.89933,145.00455
Flemington,20 Bryant St,5,casa,1550000.0,4.4,3031.0,1,1,432.0,200.0,1915.0,-37.78585,144.93591999999995
Kingsville,134 Chirnside St,3,casa,1155000.0,7.8,3012.0,2,2,269.0,123.0,1915.0,-37.8108,144.8819
St Kilda,59 Clyde St,3,casa,1891000.0,6.1,3182.0,2,3,384.0,123.0,1915.0,-37.8645,144.9805
Footscray,4 Adelaide St,4,casa,1225000.0,6.4,3011.0,2,1,319.0,130.0,1915.0,-37.7943,144.8875
Footscray,4 Adelaide St,4,casa,1225000.0,6.4,3011.0,2,1,319.0,130.0,1915.0,-37.7943,144.8875
Kingsville,74 Chirnside St,3,casa,1340000.0,7.8,3012.0,2,0,272.0,132.0,1915.0,-37.8079,144.8825
Moonee Ponds,36 Scotia St,3,casa,850000.0,6.9,3039.0,2,1,271.0,143.0,1915.0,-37.7682,144.9058
Moonee Ponds,9 Corio St,3,casa,1670000.0,6.9,3039.0,2,2,803.0,166.0,1915.0,-37.76629000000001,144.92453
Yarraville,31 Frederick St,4,casa,1320000.0,7.0,3013.0,2,1,319.0,171.0,1915.0,-37.8197,144.8957
Hawthorn East,310 Riversdale Rd,3,casa,1450000.0,7.5,3123.0,2,2,466.0,176.0,1915.0,-37.8305,145.0475
Malvern East,16 Tooronga Rd,3,casa,2020000.0,11.2,3145.0,2,2,711.0,196.0,1915.0,-37.87233,145.05668
Elwood,5 Tiuna Gr,3,casa,3572000.0,7.7,3184.0,2,6,737.0,207.0,1915.0,-37.8839,144.9831
Caulfield East,75 Grange Rd,5,casa,1335000.0,9.3,3145.0,2,1,521.0,208.0,1915.0,-37.8868,145.0462
Caulfield North,123 Normanby Rd,4,casa,2170000.0,8.1,3161.0,2,1,810.0,215.0,1915.0,-37.8698,145.0325
Carnegie,73 Truganini Rd,4,casa,1655000.0,11.4,3163.0,2,2,595.0,221.0,1915.0,-37.8916,145.0543
South Yarra,68 Oban St,3,casa,2200000.0,3.3,3141.0,2,0,358.0,238.0,1915.0,-37.8425,145.0031
West Footscray,61 Clive St,4,casa,1435000.0,8.2,3012.0,2,2,523.0,244.0,1915.0,-37.7075,145.07766999999996
Surrey Hills,7 Newton St,5,casa,2100000.0,11.2,3127.0,2,2,1025.0,277.0,1915.0,-37.8286,145.1094
Malvern East,35 Warley Rd,5,casa,2350000.0,11.2,3145.0,2,2,567.0,327.0,1915.0,-37.8786,145.0495
Richmond,29 Bennett St,3,casa,1088000.0,2.6,3121.0,3,2,168.0,120.0,1915.0,-37.8126,145.0064
Brighton East,38 Agnew St,3,casa,1710000.0,10.7,3187.0,3,2,435.0,228.0,1915.0,-37.91,145.0113
Brunswick,11 Denman St,4,casa,1410000.0,5.2,3056.0,2,1,460.0,214.0,1916.0,-37.7554,144.9544
Preston,191 Tyler St,3,casa,950000.0,8.8,3072.0,1,2,563.0,180.0,1918.0,-37.7318,145.0192
Thornbury,35D Clapham St,3,casa,1346000.0,6.5,3071.0,2,2,349.0,130.0,1918.0,-37.75485,144.99997
Malvern East,8 Ash Gr,5,casa,4802500.0,11.2,3145.0,2,4,837.0,267.0,1919.0,-37.8756,145.0561
Richmond,35 Shelley St,2,casa,905000.0,2.6,3121.0,1,0,139.0,54.0,1920.0,-37.8118,144.9937
Footscray,20 Ryan St,2,casa,760000.0,6.4,3011.0,1,0,130.0,70.0,1920.0,-37.7988,144.9045
Coburg,27 Bruce St,3,casa,680000.0,7.8,3058.0,1,2,462.0,72.0,1920.0,-37.7448,144.9478
Northcote,58 Herbert St,2,casa,950000.0,5.5,3070.0,1,1,191.0,73.0,1920.0,-37.7715,144.9951
Yarraville,43 Ballarat St,2,casa,767000.0,7.0,3013.0,1,0,128.0,80.0,1920.0,-37.8179,144.8908
Armadale,75 Sutherland Rd,3,casa,1285000.0,6.3,3143.0,1,2,186.0,80.0,1920.0,-37.8554,145.0173
Moonee Ponds,31 Bowen St,2,casa,860000.0,6.9,3039.0,1,1,301.0,80.0,1920.0,-37.7695,144.9092
Yarraville,40 Kingston St,3,casa,872500.0,7.0,3013.0,1,2,189.0,85.0,1920.0,-37.81494,144.86305
South Yarra,21 Ralston St,3,casa,906000.0,3.3,3141.0,1,0,154.0,88.0,1920.0,-37.8395,144.9868
Ascot Vale,119 Roseberry St,2,casa,750000.0,5.9,3032.0,1,1,226.0,92.0,1920.0,-37.7745,144.9093
Northcote,79 Christmas St,2,casa,1170000.0,5.5,3070.0,1,3,453.0,93.0,1920.0,-37.7666,145.0132
Newport,22 Mirls St,2,casa,962000.0,8.4,3015.0,1,1,402.0,94.0,1920.0,-37.8446,144.8796
Moonee Ponds,75 Bowen St,2,casa,1040000.0,6.9,3039.0,1,2,313.0,95.0,1920.0,-37.76785,144.93383
Box Hill,5 Patricia St,3,casa,1170000.0,13.1,3128.0,1,1,755.0,95.0,1920.0,-37.8264,145.1248
Thornbury,37 Lewis St,3,casa,995000.0,6.5,3071.0,1,1,327.0,96.0,1920.0,-37.7574,144.9854
Northcote,45 Emmaline St,2,casa,1020000.0,5.5,3070.0,1,1,354.0,97.0,1920.0,-37.7638,144.9933
Ascot Vale,72 Bloomfield Rd,2,casa,1020000.0,5.9,3032.0,1,1,226.0,98.0,1920.0,-37.77605,144.91647
Footscray,88 Eleanor St,3,casa,775000.0,6.4,3011.0,1,1,242.0,99.0,1920.0,-37.7956,144.8848
Balaclava,6 Blenheim St,3,casa,1193000.0,6.6,3183.0,1,1,178.0,100.0,1920.0,-37.8663,144.9948
Kingsville,57 Wales St,3,casa,925000.0,7.8,3012.0,1,1,275.0,100.0,1920.0,-37.8085,144.8802
Footscray,39 Moore St,3,casa,895000.0,6.4,3011.0,1,2,272.0,106.0,1920.0,-37.7977,144.89046000000005
Newport,94 Mason St,2,casa,801000.0,8.4,3015.0,1,1,343.0,106.0,1920.0,-37.8414,144.8752
Ascot Vale,30 Rothwell St,3,casa,940000.0,5.9,3032.0,1,2,298.0,108.0,1920.0,-37.7777,144.9195
Footscray,35 Leander St,2,casa,835000.0,6.4,3011.0,1,1,222.0,109.0,1920.0,-37.7962,144.8844
Northcote,77 Union St,2,casa,1634000.0,5.5,3070.0,1,2,376.0,109.0,1920.0,-37.7789,144.9952
Richmond,77 Buckingham St,3,casa,1182000.0,2.6,3121.0,1,1,199.0,110.0,1920.0,-37.8139,145.0039
Ascot Vale,62 Mirams St,3,casa,890000.0,5.9,3032.0,1,1,242.0,110.0,1920.0,-37.7765,144.9114
Ascot Vale,21A Geddes St,3,casa,1037500.0,5.9,3032.0,1,2,506.0,110.0,1920.0,-37.7779,144.9133
Collingwood,82 Sackville St,2,casa,1265000.0,1.6,3066.0,1,1,282.0,112.0,1920.0,-37.7985,144.9883
Brunswick East,192 Blyth St,3,casa,1600000.0,4.5,3057.0,1,2,812.0,113.0,1920.0,-37.7673,144.9782
Cremorne,72 Cubitt St,2,casa,1000000.0,2.5,3121.0,1,2,176.0,114.0,1920.0,-37.8281,144.9923
Brunswick East,160 Glenlyon Rd,3,casa,825000.0,4.5,3057.0,1,1,213.0,116.0,1920.0,-37.7729,144.9724
Camberwell,114 Through Rd,3,casa,1930000.0,7.8,3124.0,1,2,643.0,116.0,1920.0,-37.84045,145.09235
Toorak,16 Tashinny Rd,3,casa,1689000.0,4.6,3142.0,1,0,222.0,118.0,1920.0,-37.8448,145.0055
Preston,27 South St,3,casa,923000.0,8.8,3072.0,1,0,333.0,118.0,1920.0,-37.7423,145.0097
Essendon,11 McPhail St,2,casa,870000.0,8.0,3040.0,1,2,319.0,120.0,1920.0,-37.7555,144.9118
Moonee Ponds,14 Scotia St,4,casa,1225000.0,6.9,3039.0,1,1,388.0,120.0,1920.0,-37.7692,144.9057
Newport,42 Farm St,3,casa,1151000.0,8.4,3015.0,1,5,571.0,120.0,1920.0,-37.8417,144.8896
Balwyn,166 Gordon St,2,casa,2100000.0,9.7,3103.0,1,1,659.0,123.0,1920.0,-37.8094,145.0807
Northcote,30 Clarke St,3,casa,1200000.0,5.5,3070.0,1,1,215.0,125.0,1920.0,-37.7759,144.9909
Northcote,238 Victoria Rd,3,casa,1190000.0,5.5,3070.0,1,1,445.0,125.0,1920.0,-37.7652,145.0123
Williamstown North,18 Inglis St,3,casa,1225000.0,8.9,3016.0,1,1,311.0,126.0,1920.0,-37.8546,144.8762
Thornbury,152 Gooch St,3,casa,1427000.0,6.5,3071.0,1,1,275.0,127.0,1920.0,-37.7592,145.0105
Brunswick,7 Hall St,4,casa,1217000.0,5.2,3056.0,1,0,363.0,127.0,1920.0,-37.7621,144.9506
Coburg,41 Service St,3,casa,1130000.0,7.8,3058.0,1,2,735.0,127.0,1920.0,-37.7379,144.9623
Hughesdale,20 Dalston Rd,3,casa,1340000.0,13.0,3166.0,1,1,705.0,128.0,1920.0,-37.8994,145.0816
Yarraville,44 Severn St,3,casa,1930000.0,7.0,3013.0,1,4,902.0,129.0,1920.0,-37.8153,144.8796
Brunswick East,215 Weston St,3,casa,1495000.0,4.5,3057.0,1,1,259.0,130.0,1920.0,-37.7762,144.9755
Newport,60 Speight St,3,casa,891500.0,8.4,3015.0,1,0,344.0,130.0,1920.0,-37.8424,144.8754
Camberwell,13 Smith Rd,3,casa,2177000.0,7.8,3124.0,1,2,635.0,130.0,1920.0,-37.8454,145.0707
West Footscray,29 Devonshire St,4,casa,710000.0,8.2,3012.0,1,1,255.0,131.0,1920.0,-37.7906,144.8687
Coburg,155 Nicholson St,3,casa,825000.0,7.8,3058.0,1,2,577.0,131.0,1920.0,-37.7459,144.9773
Northcote,83 Bastings St,3,casa,1300000.0,5.5,3070.0,1,1,328.0,135.0,1920.0,-37.7745,145.0045
Thornbury,144 Clarendon St,3,casa,1290000.0,6.5,3071.0,1,2,435.0,138.0,1920.0,-37.7607,145.0105
Yarraville,46 MacKay St,4,casa,1455000.0,7.0,3013.0,1,1,328.0,140.0,1920.0,-37.8145,144.89422
Brunswick,52 Evans St,3,casa,1650000.0,5.2,3056.0,1,2,495.0,141.0,1920.0,-37.7702,144.9672
St Kilda,1/5 Marine Pde,2,kitnet,1100000.0,6.1,3182.0,1,2,1458.0,141.0,1920.0,-37.8695,144.9763
Glen Iris,22 Wills St,3,casa,1456000.0,9.2,3146.0,1,2,504.0,142.0,1920.0,-37.8541,145.0544
Moonee Ponds,61 Steele St,4,casa,1361500.0,6.9,3039.0,1,2,453.0,145.0,1920.0,-37.7698,144.9336
Camberwell,29 Kalang Rd,4,casa,2015000.0,7.8,3124.0,1,4,772.0,145.0,1920.0,-37.8441,145.0806
Brunswick,28 Frederick St,3,casa,1510000.0,5.2,3056.0,1,0,325.0,150.0,1920.0,-37.7621,144.9595
Box Hill,35 Barkly St,3,casa,1760000.0,13.1,3128.0,1,2,689.0,152.0,1920.0,-37.82622,145.13008
Albion,48 Sydney St,3,casa,840000.0,13.9,3020.0,1,0,697.0,153.0,1920.0,-37.7809,144.8228
Ascot Vale,6 Munro St,3,casa,1435000.0,5.9,3032.0,1,1,450.0,155.0,1920.0,-37.77563,144.91475
Caulfield,30 Pyne St,4,casa,131000.0,8.9,3162.0,1,2,499.0,155.0,1920.0,-37.8864,145.0242
Ascot Vale,15 Mirams St,4,casa,1345000.0,5.9,3032.0,1,1,552.0,155.0,1920.0,-37.7769,144.9138
Brighton,18 Rooding St,3,casa,1635000.0,11.2,3186.0,1,2,366.0,156.0,1920.0,-37.9038,145.0001
Coburg,6 Younger St,4,casa,931000.0,7.8,3058.0,1,1,412.0,160.0,1920.0,-37.7432,144.9768
Carlton North,700 Rathdowne St,4,casa,2175000.0,3.2,3054.0,1,0,418.0,163.0,1920.0,-37.7808,144.9736
Kew,31 Miller Gr,3,casa,2310000.0,5.6,3101.0,1,2,782.0,175.0,1920.0,-37.8107,145.0219
St Kilda,3/33 Robe St,3,kitnet,1500000.0,6.1,3182.0,1,1,1669.0,176.0,1920.0,-37.8646,144.9786
Preston,38 Wilcox St,4,casa,920000.0,8.8,3072.0,1,1,396.0,184.0,1920.0,-37.7361,145.0093
Coburg,65 Victoria St,2,casa,930000.0,7.8,3058.0,1,0,275.0,106.2,1920.0,-37.74244,144.95757
Northcote,162 Bastings St,3,casa,2160000.0,5.5,3070.0,2,1,338.0,90.0,1920.0,-37.7757,145.0119
Thornbury,126 Keon St,3,casa,1265000.0,6.5,3071.0,2,2,397.0,97.0,1920.0,-37.7515,144.9857
Kingsville,22 Coronation St,4,casa,1336000.0,7.8,3012.0,2,1,343.0,109.0,1920.0,-37.8066,144.8811
Brunswick East,41 Barkly St,3,casa,1679000.0,4.5,3057.0,2,0,326.0,118.0,1920.0,-37.7776,144.9751
Preston,21 Gillingham St,3,casa,1162500.0,8.8,3072.0,2,2,463.0,123.0,1920.0,-37.7507,144.9921
Malvern East,29 MacGregor St,3,casa,1915000.0,11.2,3145.0,2,2,700.0,126.0,1920.0,-37.8807,145.0547
Seddon,32 Walter St,4,casa,970000.0,6.6,3011.0,2,1,149.0,127.0,1920.0,-37.8047,144.8948
Thornbury,126 Smith St,3,casa,1380000.0,6.5,3071.0,2,1,359.0,128.0,1920.0,-37.7565,144.9906
Richmond,52 Brighton St,2,casa,1506000.0,2.6,3121.0,2,1,220.0,131.0,1920.0,-37.8284,144.9989
Caulfield South,393 North Rd,3,casa,1200000.0,9.3,3162.0,2,2,494.0,135.0,1920.0,-37.9027,145.0322
Brighton,124 Cole St,4,casa,1761000.0,11.2,3186.0,2,3,615.0,135.0,1920.0,-37.8956,145.0026
Essendon,22 Tweedside St,3,casa,1460000.0,8.0,3040.0,2,1,605.0,138.0,1920.0,-37.7546,144.9042
Ascot Vale,52 Monash St,3,casa,1425000.0,5.9,3032.0,2,2,495.0,139.0,1920.0,-37.7821,144.9055
Kingsville,132 Coronation St,3,casa,1035000.0,7.8,3012.0,2,2,275.0,145.0,1920.0,-37.8118,144.8801
Ashburton,1/1 Nairn St,3,casa,1518000.0,11.0,3147.0,2,2,516.0,145.0,1920.0,-37.8675,145.0668
Essendon,211 Napier St,4,casa,1467000.0,8.0,3040.0,2,1,683.0,145.0,1920.0,-37.7439,144.9195
Ascot Vale,25 Geddes St,4,casa,950000.0,5.9,3032.0,2,1,298.0,147.0,1920.0,-37.7778,144.9131
Coburg,211 Bell St,2,casa,635000.0,7.8,3058.0,2,3,339.0,149.0,1920.0,-37.7404,144.9559
Brunswick,2 Chambers St,3,casa,1691500.0,5.2,3056.0,2,3,470.0,152.0,1920.0,-37.7788,144.9688
Pascoe Vale,109 Derby St,4,casa,970000.0,9.9,3044.0,2,1,535.0,154.0,1920.0,-37.7282,144.9462
Malvern East,1/380 Waverley Rd,3,casa,1670000.0,11.2,3145.0,2,1,375.0,155.0,1920.0,-37.8777,145.0608
Brunswick,113 Glenlyon Rd,4,casa,1320000.0,5.2,3056.0,2,1,281.0,156.0,1920.0,-37.7722,144.9681
Thornbury,11 Clarendon St,3,casa,1400000.0,6.5,3071.0,2,1,417.0,159.0,1920.0,-37.7595,145.0017
Ormond,15 Tyrone St,4,casa,1918000.0,11.8,3204.0,2,1,678.0,162.0,1920.0,-37.9065,145.0461
Ivanhoe,10 Abbotsford Gr,3,casa,1605000.0,7.9,3079.0,2,2,608.0,165.0,1920.0,-37.7702,145.0398
Murrumbeena,21 Ardyne St,4,casa,1610000.0,12.1,3163.0,2,2,660.0,167.0,1920.0,-37.8932,145.0681
Yarraville,109 Powell St,3,casa,1320000.0,7.0,3013.0,2,2,473.0,171.0,1920.0,-37.8217,144.8842
Brighton East,4a Marriage Rd,4,casa,1530000.0,10.7,3187.0,2,1,603.0,177.0,1920.0,-37.9187,145.0071
Northcote,42 Kellett St,3,casa,1760000.0,5.5,3070.0,2,2,403.0,180.0,1920.0,-37.7673,145.0081
Preston,370 Gilbert Rd,4,casa,930000.0,8.8,3072.0,2,2,604.0,180.0,1920.0,-37.7369,144.9905
Elsternwick,393 Kooyong Rd,3,casa,1625000.0,8.5,3185.0,2,2,447.0,181.0,1920.0,-37.8912,145.0138
Essendon,32 Vanberg Rd,4,casa,1670000.0,8.0,3040.0,2,1,291.0,183.0,1920.0,-37.7544,144.9325
Brunswick West,871 Park St,4,casa,1700000.0,5.9,3055.0,2,2,621.0,184.0,1920.0,-37.7764,144.9479
Elwood,6 Daley St,4,casa,2400000.0,7.7,3184.0,2,2,560.0,185.0,1920.0,-37.8822,144.9913
Newport,487 Melbourne Rd,8,casa,881000.0,8.4,3015.0,2,4,663.0,190.0,1920.0,-37.8385,144.8824
Brunswick West,542 Albion St,5,casa,1200000.0,5.9,3055.0,2,3,553.0,193.0,1920.0,-37.7576,144.9348
Carnegie,26 Railway Rd,4,casa,1667000.0,11.4,3163.0,2,2,615.0,193.0,1920.0,-37.89281,145.05312
Ascot Vale,125 Epsom Rd,4,casa,1100000.0,5.9,3032.0,2,5,559.0,195.0,1920.0,-37.7791,144.9136
Malvern East,38 MacGregor St,3,casa,1837000.0,11.2,3145.0,2,1,769.0,196.0,1920.0,-37.8799,145.0552
Oakleigh,12 Watsonia St,4,casa,1615000.0,14.0,3166.0,2,2,537.0,199.0,1920.0,-37.89524,145.09108
Ivanhoe,20 Locksley Rd,4,casa,2400000.0,7.9,3079.0,2,2,1252.0,201.0,1920.0,-37.7727,145.0484
Alphington,42 Shiers St,4,casa,1950000.0,6.4,3078.0,2,3,589.0,210.0,1920.0,-37.7719,145.0309
Camberwell,5 Cooloongatta Rd,3,casa,1800000.0,7.8,3124.0,2,0,584.0,213.0,1920.0,-37.8349,145.0758
Moonee Ponds,99 Eglinton St,4,casa,1940000.0,6.9,3039.0,2,3,675.0,228.0,1920.0,-37.76407,144.90469
Surrey Hills,63 Shepherd St,4,casa,1812500.0,11.2,3127.0,2,2,715.0,230.0,1920.0,-37.8325,145.1114
Northcote,25 Simpson St,4,casa,2340000.0,5.5,3070.0,2,3,824.0,231.0,1920.0,-37.7803,145.0063
Surrey Hills,18 Benson St,4,casa,2500000.0,11.2,3127.0,2,2,783.0,256.0,1920.0,-37.8181,145.0913
Malvern East,1 Villers Sq,4,casa,1580000.0,11.2,3145.0,2,1,504.0,260.0,1920.0,-37.8834,145.0635
Essendon,18 Lorraine St,4,casa,2355000.0,8.0,3040.0,2,3,715.0,273.0,1920.0,-37.7582,144.9128
Moonee Ponds,6 Robinson St,4,casa,1640000.0,6.9,3039.0,2,1,435.0,329.0,1920.0,-37.7601,144.9228
Kew,48 Malin St,4,casa,2600000.0,5.6,3101.0,2,0,320.0,186.36,1920.0,-37.81265,145.03824
Coburg,24 Florence St,5,casa,1790000.0,7.8,3058.0,3,2,635.0,108.0,1920.0,-37.75159,144.95926
Thornbury,22 Gooch St,3,casa,1235000.0,6.5,3071.0,3,1,288.0,133.0,1920.0,-37.7583,145.0025
Moonee Ponds,5 Bent St,4,casa,1445000.0,6.9,3039.0,3,2,384.0,178.0,1920.0,-37.7617,144.9272
Moonee Ponds,69 Aberfeldie St,4,casa,1780000.0,6.9,3039.0,3,2,615.0,201.0,1920.0,-37.7617,144.9052
Malvern East,12 Hilda St,4,casa,2200000.0,11.2,3145.0,3,2,567.0,215.0,1920.0,-37.8742,145.0614
Surrey Hills,226 Union Rd,5,casa,2200000.0,11.2,3127.0,3,2,735.0,235.0,1920.0,-37.8175,145.0987
Richmond,30 Highett St,4,casa,3001000.0,2.6,3121.0,3,1,544.0,241.0,1920.0,-37.8152,144.9922
Glen Iris,16 Flowerdale Rd,5,casa,2000000.0,9.2,3146.0,3,1,696.0,248.0,1920.0,-37.8563,145.0709
Glen Iris,11 Vincent St,4,casa,3400000.0,9.2,3146.0,3,2,856.0,265.0,1920.0,-37.8628,145.0436
Hampton,4 Bendigo St,4,casa,3200000.0,13.7,3188.0,3,3,760.0,325.0,1920.0,-37.9326,144.9997
Northcote,81 Mitchell St,5,casa,2700000.0,5.5,3070.0,3,3,490.0,331.0,1920.0,-37.7726,145.0048
Hawthorn,9 Power St,5,casa,3750000.0,4.6,3122.0,3,2,827.0,344.0,1920.0,-37.8144,145.0279
Ivanhoe,6 Fairy St,5,casa,2600000.0,7.9,3079.0,3,1,1006.0,411.0,1920.0,-37.7765,145.0427
Brunswick,129 Glenlyon Rd,3,casa,1652000.0,5.2,3056.0,1,2,506.0,196.8,1921.0,-37.77228,144.9694
Carnegie,1 Frogmore Rd,3,casa,1600000.0,11.4,3163.0,2,2,751.0,40.0,1923.0,-37.8945,145.0648
Toorak,684 Orrong Rd,4,casa,5500000.0,4.6,3142.0,4,5,877.0,332.0,1923.0,-37.8447,145.0134
Northcote,6 Brooke St,3,casa,1655000.0,5.5,3070.0,1,3,472.0,101.0,1924.0,-37.7765,145.0027
Box Hill,14 Collins St,4,casa,1670000.0,13.1,3128.0,2,2,590.0,231.0,1924.0,-37.8274,145.1242
Sunshine,29 Benjamin St,2,casa,611000.0,12.6,3020.0,1,2,204.0,77.0,1925.0,-37.7938,144.8321
Coburg,265 Bell St,2,casa,700000.0,7.8,3058.0,1,2,381.0,92.0,1925.0,-37.74,144.9516
West Footscray,8 Dongola Rd,3,casa,913000.0,8.2,3012.0,1,3,448.0,96.0,1925.0,-37.7911,144.8821
Preston,13 Patterson St,2,casa,790000.0,8.8,3072.0,1,1,266.0,100.0,1925.0,-37.7423,145.0105
West Footscray,1 Dongola Rd,3,casa,935000.0,8.2,3012.0,1,2,325.0,102.0,1925.0,-37.79681,144.88148
Sunshine,3 Lynch St,3,casa,715000.0,12.6,3020.0,1,2,558.0,104.0,1925.0,-37.7807,144.8341
Thornbury,46 Harold St,2,casa,1110000.0,6.5,3071.0,1,0,288.0,105.0,1925.0,-37.7564,144.9971
Camberwell,4 Range St,3,casa,2000000.0,7.8,3124.0,1,2,821.0,105.0,1925.0,-37.8459,145.0644
Sunshine,8 Station Pl,3,casa,880000.0,12.6,3020.0,1,3,463.0,107.0,1925.0,-37.7905,144.8359
West Footscray,45 Hansen St,3,casa,967000.0,8.2,3012.0,1,2,347.0,113.0,1925.0,-37.8067,144.8761
West Footscray,44 Clive St,3,casa,1151500.0,8.2,3012.0,1,2,536.0,113.0,1925.0,-37.7978,144.8743
Malvern East,23 Darling Rd,3,casa,1650000.0,11.2,3145.0,1,2,764.0,114.0,1925.0,-37.8814,145.0583
Brunswick,10 Bennie St,3,casa,1115000.0,5.2,3056.0,1,1,249.0,116.0,1925.0,-37.76687,144.96643
Oakleigh,94 Burlington St,3,casa,880000.0,14.0,3166.0,1,1,670.0,118.0,1925.0,-37.9033,145.1006
Carnegie,76 Oakleigh Rd,3,casa,1125000.0,11.4,3163.0,1,1,604.0,120.0,1925.0,-37.8993,145.0528
Coburg,60 Glengyle St,3,casa,1210000.0,7.8,3058.0,1,1,379.0,125.0,1925.0,-37.7544,144.9764
Brighton East,40 Hodder St,3,casa,1635000.0,10.7,3187.0,1,1,597.0,131.0,1925.0,-37.90638,145.02289
Fairfield,3 Gillies St,3,casa,1500000.0,5.8,3078.0,1,2,574.0,150.0,1925.0,-37.78296,145.02123
Coburg,212 Reynard St,4,casa,1075000.0,7.8,3058.0,1,4,531.0,187.0,1925.0,-37.7473,144.9528
Preston,78 Miller St,3,casa,1080000.0,8.8,3072.0,1,1,487.0,189.0,1925.0,-37.7511,144.9907
Caulfield South,22 Sycamore St,3,casa,1450000.0,9.3,3162.0,2,1,478.0,120.0,1925.0,-37.8893,145.0161
Preston,7 Leicester St,3,casa,1121000.0,8.8,3072.0,2,3,604.0,123.0,1925.0,-37.75048,145.00264
Caulfield South,131 Sycamore St,3,casa,1350000.0,9.3,3162.0,2,1,305.0,129.0,1925.0,-37.88991,145.02296
Preston,2 Esther St,2,casa,860000.0,8.8,3072.0,2,1,415.0,138.0,1925.0,-37.7481,145.0017
Brighton East,4 Vincent St,3,casa,1480000.0,10.7,3187.0,2,2,697.0,143.0,1925.0,-37.9269,145.0274
Newport,28 Agg St,4,casa,1230000.0,8.4,3015.0,2,1,402.0,146.0,1925.0,-37.89072,145.06658000000004
Box Hill,11 Howard St,3,casa,2080000.0,13.1,3128.0,2,2,693.0,158.0,1925.0,-37.82291,145.1217
Hughesdale,8 Bowmore St,4,casa,1745000.0,13.0,3166.0,2,1,547.0,185.0,1925.0,-37.9002,145.0768
Hampton,6 Earlsfield Rd,4,casa,2140000.0,13.7,3188.0,2,3,688.0,187.0,1925.0,-37.9319,145.0173
Hampton,18 Kanowna St,4,casa,2130000.0,13.7,3188.0,2,2,714.0,188.0,1925.0,-37.9446,145.0092
Maribyrnong,31 Monash St,4,casa,1030000.0,8.7,3032.0,2,1,573.0,196.0,1925.0,-37.7844,144.8876
Brighton,176 Were St,5,casa,1562500.0,11.2,3186.0,2,2,655.0,202.0,1925.0,-37.9264,145.0044
Carnegie,42 Margaret St,4,casa,1506000.0,11.4,3163.0,2,2,561.0,204.0,1925.0,-37.8934,145.0633
Preston,1 Bellarine St,4,casa,1400000.0,8.8,3072.0,2,2,559.0,217.0,1925.0,-37.7347,144.9966
Eaglemont,6 Ashby Gr,5,casa,1901000.0,10.3,3084.0,2,2,963.0,225.0,1925.0,-37.7674,145.0518
Glen Iris,20 Howitt St,4,casa,2376000.0,9.2,3146.0,2,2,652.0,230.0,1925.0,-37.8479,145.0557
Hampton,52 Service St,4,casa,2250000.0,13.7,3188.0,2,2,647.0,260.0,1925.0,-37.9407,145.0104
Glen Iris,3 Fairview Gr,5,casa,3365000.0,9.2,3146.0,2,2,1339.0,270.0,1925.0,-37.8649,145.0547
Toorak,28 Warra St,4,casa,2620000.0,4.6,3142.0,2,2,516.0,286.0,1925.0,-37.8398,145.0305
Hughesdale,3 Paget St,4,casa,2120000.0,13.0,3166.0,2,2,847.0,315.0,1925.0,-37.8927,145.0781
Brighton,64 North Rd,4,casa,2700000.0,11.2,3186.0,2,2,732.0,333.0,1925.0,-37.8987,144.9953
Hawthorn East,3 Jaques St,5,casa,2500000.0,7.5,3123.0,3,3,757.0,240.0,1925.0,-37.8176,145.0548
Hampton,54 Linacre Rd,4,casa,2000000.0,13.7,3188.0,3,4,615.0,248.0,1925.0,-37.9429,145.0072
Moonee Ponds,75 Scott St,5,casa,1900000.0,6.9,3039.0,3,2,646.0,261.0,1925.0,-37.7625,144.9074
Ascot Vale,8 Anderson St,5,casa,2100000.0,5.9,3032.0,3,3,468.0,274.0,1925.0,-37.7822,144.90651
Glen Iris,2 Vincent St,5,casa,3730000.0,9.2,3146.0,3,2,919.0,353.0,1925.0,-37.8637,145.0438
Surrey Hills,20 Everton Gr,5,casa,2630000.0,11.2,3127.0,3,2,777.0,362.0,1925.0,-37.8287,145.1054
Malvern,3 Mary St,4,casa,4525000.0,7.4,3144.0,4,2,716.0,159.0,1925.0,-37.8469,145.0377
Caulfield South,42 Poplar St,3,casa,1330000.0,9.3,3162.0,1,1,312.0,123.0,1926.0,-37.8893,145.0196
Brighton East,1 Alexander St,3,casa,1301000.0,10.7,3187.0,2,2,401.0,121.0,1926.0,-37.9062,145.0173
Bentleigh,43 Godfrey St,5,casa,1900000.0,13.0,3204.0,2,2,567.0,250.0,1926.0,-37.9144,145.0401
Box Hill,33 Pendle St,4,casa,1670000.0,13.1,3128.0,4,4,707.0,162.0,1926.0,-37.8166,145.1354
Canterbury,21 Compton St,4,casa,2950000.0,9.0,3126.0,2,3,812.0,173.0,1927.0,-37.8323,145.0842
Box Hill,12 Barcelona St,4,casa,1461400.0,13.1,3128.0,2,2,780.0,235.0,1927.0,-37.8244,145.1319
Balwyn,5 Millah Rd,4,casa,3270000.0,9.7,3103.0,2,4,935.0,241.0,1927.0,-37.8157,145.0795
Albion,70 Forrest St,3,casa,600000.0,13.9,3020.0,1,1,697.0,110.0,1928.0,-37.7842,144.8175
Kew,30 College Pde,4,casa,2590000.0,5.6,3101.0,2,2,660.0,215.0,1928.0,-37.8124,145.0361
Bentleigh,8 Rose St,4,casa,2435000.0,13.0,3204.0,2,2,795.0,250.0,1928.0,-37.9166,145.0314
Preston,421 Murray Rd,4,casa,760000.0,8.8,3072.0,8,7,1254.0,280.0,1928.0,-37.7367,144.9895
South Yarra,3/38 Arnold St,1,kitnet,540000.0,3.3,3141.0,1,1,480.0,53.0,1930.0,-37.8356,144.9767
Middle Park,2/61 Canterbury Rd,2,kitnet,535000.0,4.1,3206.0,1,1,760.0,58.0,1930.0,-37.8474,144.9625
St Kilda,2/16 Charnwood Rd,2,kitnet,650000.0,6.1,3182.0,1,0,822.0,70.0,1930.0,-37.8585,144.9854
Prahran,1/70 Williams Rd,2,casa,910000.0,4.5,3181.0,1,1,183.0,71.0,1930.0,-37.8543,145.0024
St Kilda,23A Havelock St,2,casa,1120000.0,6.1,3182.0,1,0,135.0,74.0,1930.0,-37.85849,144.9807
Abbotsford,27 Charles St,2,casa,1030000.0,2.5,3067.0,1,1,172.0,81.0,1930.0,-37.8086,144.9946
South Yarra,8 Cliff St,2,casa,1100000.0,3.3,3141.0,1,0,176.0,81.0,1930.0,-37.8436,144.9925
Flemington,21 Wisewould St,2,casa,855000.0,4.4,3031.0,1,0,225.0,85.0,1930.0,-37.7849,144.9197
Caulfield South,23 Lygon St,2,casa,825000.0,9.3,3162.0,1,1,367.0,85.0,1930.0,-37.8995,145.0241
West Footscray,107 Alma St,3,casa,1575000.0,8.2,3012.0,1,4,1000.0,85.0,1930.0,-37.7936,144.8639
Yarraville,52 Severn St,3,casa,865000.0,7.0,3013.0,1,1,189.0,87.0,1930.0,-37.8159,144.8795
Balwyn North,54 Sutton St,3,casa,1818000.0,9.2,3104.0,1,1,722.0,90.0,1930.0,-37.7956,145.0829
Brunswick West,64 Pearson St,3,casa,955000.0,5.9,3055.0,1,0,220.0,93.0,1930.0,-37.7659,144.9494
North Melbourne,3 Murphy St,3,casa,1470000.0,2.3,3051.0,1,0,232.0,93.0,1930.0,-37.7977,144.9512
Coburg North,64 Elizabeth St,3,casa,650000.0,9.2,3058.0,1,1,407.0,95.0,1930.0,-37.7351,144.9833
Camberwell,591 Camberwell Rd,2,casa,895000.0,7.8,3124.0,1,1,424.0,95.0,1930.0,-37.8465,145.0743
Brunswick,28 Osborne St,3,casa,855000.0,5.2,3056.0,1,1,229.0,97.0,1930.0,-37.7622,144.9586
Hughesdale,19 Canterbury St,3,casa,1055000.0,13.0,3166.0,1,1,562.0,97.0,1930.0,-37.9022,145.0811
Hughesdale,22 Skipton Rd,4,casa,1337000.0,13.0,3166.0,1,2,696.0,100.0,1930.0,-37.8991,145.0804
Elsternwick,12/66 Riddell Pde,2,kitnet,626000.0,8.5,3185.0,1,1,1764.0,100.0,1930.0,-37.8889,145.0043
Flemington,61 Canterbury St,3,casa,1012000.0,4.4,3031.0,1,1,212.0,102.0,1930.0,-37.7818,144.9247
Thornbury,111 Smith St,2,casa,1085000.0,6.5,3071.0,1,2,303.0,102.0,1930.0,-37.7569,144.9914
Glen Iris,28 Martin Rd,3,casa,1601000.0,9.2,3146.0,1,2,453.0,102.0,1930.0,-37.8487,145.04316
Oakleigh,1/1478 Dandenong Rd,3,kitnet,690000.0,14.0,3166.0,1,2,340.0,103.0,1930.0,-37.8968,145.0983
West Footscray,2/663 Barkly St,3,kitnet,580000.0,8.2,3012.0,1,0,183.0,104.0,1930.0,-37.79711,144.8684
Newport,12 Severn St,2,casa,816000.0,8.4,3015.0,1,1,315.0,104.0,1930.0,-37.8465,144.8714
Newport,63 Mason St,3,casa,805000.0,8.4,3015.0,1,2,322.0,104.0,1930.0,-37.8422,144.8784
Ormond,2 Wimmera St,2,casa,1177000.0,11.8,3204.0,1,2,452.0,105.0,1930.0,-37.9024,145.0539
Essendon,16 Kendall St,3,casa,1295000.0,8.0,3040.0,1,3,688.0,105.0,1930.0,-37.7578,144.9317
Box Hill,22 William St,3,casa,1500000.0,13.1,3128.0,1,2,664.0,106.0,1930.0,-37.8235,145.1276
Prahran,57 Clarke St,2,casa,1590000.0,4.5,3181.0,1,2,308.0,107.0,1930.0,-37.8492,145.0019
Prahran,29 Murray St,2,casa,1500000.0,4.5,3181.0,1,2,222.0,108.0,1930.0,-37.8501,144.9995
Brunswick,54 Davies St,2,casa,1075000.0,5.2,3056.0,1,0,311.0,108.0,1930.0,-37.7572,144.9687
Sunshine,73 Monash St,3,casa,840000.0,12.6,3020.0,1,1,462.0,108.0,1930.0,-37.78746,144.83729
Newport,16 Milford St,2,casa,760000.0,8.4,3015.0,1,2,255.0,109.0,1930.0,-37.8469,144.8766
Fairfield,52 Rayment St,3,casa,1350000.0,5.8,3078.0,1,4,553.0,109.0,1930.0,-37.7728,145.0214
Carnegie,2 Kokaribb Rd,2,casa,930000.0,11.4,3163.0,1,1,264.0,110.0,1930.0,-37.8864,145.0561
Brunswick East,22 Lord St,3,casa,1335000.0,4.5,3057.0,1,2,308.0,113.0,1930.0,-37.7713,144.9744
Glen Iris,56 Wills St,2,casa,920000.0,9.2,3146.0,1,2,334.0,115.0,1930.0,-37.8577,145.0576
Brunswick West,1 Jordan St,2,casa,1315000.0,5.9,3055.0,1,2,554.0,116.0,1930.0,-37.7715,144.9426
Brighton East,244a South Rd,3,casa,930000.0,10.7,3187.0,1,1,329.0,117.0,1930.0,-37.9317,145.0218
Brighton East,11 Summerhill Rd,2,casa,1813000.0,10.7,3187.0,1,2,660.0,117.0,1930.0,-37.9179,145.0127
Reservoir,686 High St,3,casa,805000.0,11.2,3073.0,1,2,227.0,118.0,1930.0,-37.7286,145.0059
Box Hill,837 Canterbury Rd,3,casa,857000.0,13.1,3128.0,1,1,492.0,119.0,1930.0,-37.8283,145.1195
Altona,4 Blyth St,3,casa,1120000.0,13.8,3018.0,1,2,506.0,120.0,1930.0,-37.8693,144.8375
Heidelberg Heights,97 Edwin St,2,casa,815000.0,10.5,3081.0,1,2,589.0,120.0,1930.0,-37.7501,145.0505
Coburg,107 Moreland Rd,3,casa,766000.0,7.8,3058.0,1,0,378.0,124.0,1930.0,-37.7561,144.9716
Coburg,105 Moreland Rd,3,casa,812000.0,7.8,3058.0,1,1,370.0,130.0,1930.0,-37.7561,144.9718
Ivanhoe,103 Waterdale Rd,3,casa,1225000.0,7.9,3079.0,1,1,572.0,130.0,1930.0,-37.7709,145.0425
Northcote,239 Victoria Rd,3,casa,1000000.0,5.5,3070.0,1,1,440.0,131.0,1930.0,-37.7663,145.0118
Thornbury,145 Shaftesbury Pde,3,casa,1195000.0,6.5,3071.0,1,2,463.0,131.0,1930.0,-37.75655,145.0083
Camberwell,6 Gavan St,3,casa,1780000.0,7.8,3124.0,1,1,769.0,133.0,1930.0,-37.8482,145.0949
Newport,31 Milford St,2,casa,1030000.0,8.4,3015.0,1,2,470.0,136.0,1930.0,-37.8471,144.8769
Glen Iris,56 Brandon St,3,casa,1820000.0,9.2,3146.0,1,3,650.0,136.0,1930.0,-37.8571,145.0766
Glen Huntly,83 Grange Rd,3,casa,1160000.0,10.4,3163.0,1,2,553.0,137.0,1930.0,-37.8878,145.0456
Glen Iris,32 Howie St,3,casa,1751000.0,9.2,3146.0,1,3,609.0,140.0,1930.0,-37.8542,145.0733
Coburg,1 Shaftsbury St,4,casa,990000.0,7.8,3058.0,1,1,488.0,142.0,1930.0,-37.7537,144.9532
Glen Iris,28 Ferndale Rd,3,casa,2200000.0,9.2,3146.0,1,2,700.0,142.0,1930.0,-37.8553,145.0711
Strathmore,34 Woodland St,3,casa,1194000.0,9.7,3041.0,1,2,650.0,143.0,1930.0,-37.7436,144.9308
West Footscray,28 Khartoum St,4,casa,830000.0,8.2,3012.0,1,2,426.0,144.0,1930.0,-37.7919,144.8793
Brighton East,4 Bruce St,4,casa,1389000.0,10.7,3187.0,1,2,656.0,150.0,1930.0,-37.9027,145.0225
Brighton East,9a Elizabeth St,3,casa,1355000.0,10.7,3187.0,1,2,759.0,151.0,1930.0,-37.9057,145.0166
Glen Iris,1687 Malvern Rd,3,casa,2800000.0,9.2,3146.0,1,2,762.0,153.0,1930.0,-37.8575,145.0554
Moonee Ponds,2 Parry St,5,casa,1740000.0,6.9,3039.0,1,2,739.0,155.0,1930.0,-37.7613,144.9177
Albion,25 Sydney St,4,casa,816000.0,13.9,3020.0,1,2,837.0,156.0,1930.0,-37.7825,144.8221
Brunswick,52 Talbot St,2,casa,755000.0,5.2,3056.0,1,1,159.0,157.0,1930.0,-37.7656,144.9562
Ivanhoe,171 Waterdale Rd,3,casa,1486000.0,7.9,3079.0,1,2,645.0,158.0,1930.0,-37.7634,145.0439
Brunswick East,164 Blyth St,4,casa,1310000.0,4.5,3057.0,1,2,449.0,159.0,1930.0,-37.76709,144.97619
Camberwell,13 Grace St,3,casa,1622000.0,7.8,3124.0,1,1,544.0,160.0,1930.0,-37.8436,145.0581
Brunswick West,9 Peacock St,4,casa,921500.0,5.9,3055.0,1,1,575.0,165.0,1930.0,-37.7575,144.9402
Balwyn,142 Balwyn Rd,2,casa,1850000.0,9.7,3103.0,1,1,1015.0,166.0,1930.0,-37.8074,145.0826
Newport,74 Oxford St,4,casa,1650000.0,8.4,3015.0,1,4,837.0,173.0,1930.0,-37.84154,144.8803
Surrey Hills,480 Whitehorse Rd,3,casa,1700000.0,11.2,3127.0,1,1,763.0,180.0,1930.0,-37.8148,145.0965
Balwyn,26 Wills St,4,casa,2000000.0,9.7,3103.0,1,2,739.0,291.0,1930.0,-37.8039,145.0631
Coburg,14 Alice St,3,casa,990000.0,7.8,3058.0,1,3,414.0,153.1,1930.0,-37.74316,144.95729
Oakleigh,1/157 Atherton Rd,3,kitnet,633500.0,14.0,3166.0,2,2,279.0,95.0,1930.0,-37.9001,145.1009
Footscray,8 Dudley St,3,casa,767500.0,6.4,3011.0,2,0,458.0,98.0,1930.0,-37.7942,144.8832
Seddon,5 Williamstown Rd,2,casa,822500.0,6.6,3011.0,2,1,228.0,111.0,1930.0,-37.8034,144.8855
Brunswick West,196 Melville Rd,2,casa,816000.0,5.9,3055.0,2,1,343.0,115.0,1930.0,-37.7552,144.9458
Brighton East,214 Were St,4,casa,2310000.0,10.7,3187.0,2,2,757.0,130.0,1930.0,-37.9266,145.0088
Camberwell,19 Thomas St,3,casa,2325000.0,7.8,3124.0,2,2,1133.0,131.0,1930.0,-37.8426,145.0943
Carnegie,90 Truganini Rd,4,casa,1550000.0,11.4,3163.0,2,2,757.0,133.0,1930.0,-37.8925,145.0541
Yarraville,183 Stephen St,3,casa,970000.0,7.0,3013.0,2,0,354.0,135.0,1930.0,-37.81669,144.89545
Essendon,18 Vanberg Rd,3,casa,1385000.0,8.0,3040.0,2,1,619.0,137.0,1930.0,-37.7543,144.9318
Bentleigh,21 Bruce St,3,casa,1535000.0,13.0,3204.0,2,2,572.0,150.0,1930.0,-37.9148,145.0404
Malvern East,17A Findon St,3,casa,1870000.0,11.2,3145.0,2,1,400.0,152.0,1930.0,-37.8718,145.0404
Travancore,61 Mooltan St,3,casa,1257000.0,5.3,3032.0,2,1,337.0,153.0,1930.0,-37.7813,144.9371
Thornbury,129 Clarendon St,3,casa,1370000.0,6.5,3071.0,2,3,417.0,153.0,1930.0,-37.7602,145.0084
Thornbury,184 Raleigh St,4,casa,1428888.0,6.5,3071.0,2,1,470.0,153.0,1930.0,-37.7601,145.0122
Carnegie,88A Truganini Rd,3,casa,1200000.0,11.4,3163.0,2,2,515.0,156.0,1930.0,-37.89237,145.05406000000005
Williamstown,71 Hannan St,4,casa,1805000.0,8.0,3016.0,2,2,466.0,160.0,1930.0,-37.8621,144.8872
Balwyn,17 Knutsford St,3,casa,3401000.0,9.7,3103.0,2,1,706.0,166.0,1930.0,-37.8161,145.0748
Newport,46 River St,4,casa,940000.0,8.4,3015.0,2,1,379.0,172.0,1930.0,-37.8408,144.8893
Surrey Hills,16 Banool Rd,3,casa,1960000.0,11.2,3127.0,2,2,585.0,173.0,1930.0,-37.8167,145.0924
Glen Huntly,8 Augusta St,3,casa,1330000.0,10.4,3163.0,2,1,295.0,176.0,1930.0,-37.8904,145.0387
Camberwell,29 Mabel St,4,casa,2216000.0,7.8,3124.0,2,0,670.0,176.0,1930.0,-37.83777,145.08902
Surrey Hills,33 Ross St,4,casa,1835000.0,11.2,3127.0,2,2,619.0,185.0,1930.0,-37.8171,145.0934
West Footscray,15 Rupert St,4,casa,1325000.0,8.2,3012.0,2,4,525.0,188.0,1930.0,-37.79814,144.86467
Essendon,31 Elder Pde,3,casa,1500000.0,8.0,3040.0,2,3,440.0,190.0,1930.0,-37.7524,144.9074
Bentleigh,11 Wheatley Rd,4,casa,1860000.0,13.0,3204.0,2,3,855.0,197.0,1930.0,-37.9163,145.0324
Mont Albert,42 View St,4,casa,2200000.0,11.8,3127.0,2,2,931.0,199.0,1930.0,-37.8226,145.1103
Kew East,36 Belford Rd,4,casa,1315000.0,7.5,3102.0,2,2,458.0,200.0,1930.0,-37.7981,145.0472
Kew East,36 Belford Rd,4,casa,1315000.0,7.5,3102.0,2,2,458.0,200.0,1930.0,-37.7981,145.0472
Glen Iris,22 Kyarra Rd,4,casa,1857000.0,9.2,3146.0,2,3,548.0,205.0,1930.0,-37.8536,145.0547
Surrey Hills,20 Anderson St,3,casa,1251000.0,11.2,3127.0,2,1,536.0,211.0,1930.0,-37.8309,145.0946
Thornbury,39 Smith St,3,casa,1913000.0,6.5,3071.0,2,2,611.0,212.0,1930.0,-37.7575,144.9968
Glen Iris,5 Charles St,4,casa,2010000.0,9.2,3146.0,2,2,659.0,212.0,1930.0,-37.8509,145.0916
Yarraville,10 Tuppen St,5,casa,1287000.0,7.0,3013.0,2,2,488.0,213.0,1930.0,-37.8131,144.8778
Glen Iris,28 Alfred Rd,4,casa,1800000.0,9.2,3146.0,2,2,868.0,217.0,1930.0,-37.8522,145.0893
Ashburton,69 Albion Rd,3,casa,1670000.0,11.0,3147.0,2,2,599.0,220.0,1930.0,-37.8673,145.0688
Kew,4 Franks Gr,4,casa,2550000.0,5.6,3101.0,2,2,603.0,220.0,1930.0,-37.8095,145.0391
Coburg,8 Gilbert St,3,casa,1260000.0,7.8,3058.0,2,0,407.0,230.0,1930.0,-37.7471,144.9579
Eaglemont,47 Ormond Rd,5,casa,1930000.0,10.3,3084.0,2,1,939.0,236.0,1930.0,-37.7659,145.0585
Alphington,6 Smith St,4,casa,2000000.0,6.4,3078.0,2,4,853.0,263.0,1930.0,-37.7707,145.0318
Surrey Hills,29 Weybridge St,4,casa,2360000.0,11.2,3127.0,2,2,764.0,265.0,1930.0,-37.83523,145.09481
Alphington,11 Margaret Gr,4,casa,1900000.0,6.4,3078.0,2,2,556.0,272.0,1930.0,-37.7844,145.0225
Moonee Ponds,36 Derby St,3,apartamento,1345000.0,6.9,3039.0,2,1,310.0,287.0,1930.0,-37.7639,144.9126
Brighton,86 Dendy St,5,casa,3105000.0,11.2,3186.0,2,2,1045.0,304.0,1930.0,-37.9205,145.0012
Moonee Ponds,119 Park St,5,casa,2300000.0,6.9,3039.0,2,2,597.0,322.0,1930.0,-37.75888,144.92548
Malvern East,8 MacGregor St,4,casa,1700000.0,11.2,3145.0,3,2,365.0,110.0,1930.0,-37.8818,145.0548
Essendon North,64 Kerferd St,5,casa,1360000.0,9.4,3041.0,3,2,463.0,196.0,1930.0,-37.7379,144.9022
Toorak,28 Bruce St,3,casa,2250000.0,4.6,3142.0,3,2,575.0,205.0,1930.0,-37.8375,145.0092
Essendon,55 Lincoln Rd,4,casa,1600000.0,8.0,3040.0,3,1,519.0,218.0,1930.0,-37.7517,144.9086
Brighton East,109 Thomas St,5,casa,1400000.0,10.7,3187.0,3,4,824.0,235.0,1930.0,-37.9091,145.0245
Malvern East,16A Manning Rd,3,casa,2273000.0,11.2,3145.0,3,1,376.0,254.0,1930.0,-37.8727,145.0458
Malvern East,69 Beaver St,4,casa,2123000.0,11.2,3145.0,3,2,412.0,254.0,1930.0,-37.8707,145.0482
Elsternwick,20 Shoobra Rd,4,casa,2806000.0,8.5,3185.0,3,2,669.0,255.0,1930.0,-37.8871,145.0081
Surrey Hills,36 Banool Rd,4,casa,2440000.0,11.2,3127.0,3,2,596.0,264.0,1930.0,-37.8154,145.0927
Northcote,29 Traill St,5,casa,1700000.0,5.5,3070.0,3,1,450.0,265.0,1930.0,-37.7701,144.9886
Essendon,18 Washington St,5,casa,1811000.0,8.0,3040.0,3,2,657.0,284.0,1930.0,-37.7548,144.9098
Glen Iris,22 Renwick St,4,casa,2325000.0,9.2,3146.0,3,2,638.0,314.0,1930.0,-37.8523,145.0726
Glen Iris,31 Gardiner Pde,4,casa,2625000.0,9.2,3146.0,3,2,840.0,326.0,1930.0,-37.8538,145.0641
Glen Iris,35 Adrian St,5,casa,2400000.0,9.2,3146.0,3,2,709.0,672.0,1930.0,-37.8529,145.0806
Essendon,8 Monica St,6,casa,2620000.0,8.0,3040.0,4,2,860.0,355.0,1930.0,-37.7484,144.9025
Hawthorn,2 Fordholm Rd,5,casa,4250000.0,4.6,3122.0,4,3,1275.0,435.0,1930.0,-37.8291,145.0308
Kew East,96 Kilby Rd,3,casa,1615000.0,7.5,3102.0,1,1,702.0,127.0,1933.0,-37.7922,145.0518
Port Melbourne,98 Heath St,2,casa,1400000.0,3.8,3207.0,1,1,168.0,102.0,1934.0,-37.8346,144.9453
Hawthorn East,20 Beaconsfield Rd,2,casa,1585000.0,7.5,3123.0,1,2,390.0,102.0,1935.0,-37.8322,145.0486
Richmond,6 Kennedy St,3,casa,1365000.0,2.6,3121.0,1,1,301.0,110.0,1935.0,-37.8134,145.0055
Balwyn,33 Power St,4,casa,1700000.0,9.7,3103.0,1,1,672.0,115.0,1935.0,-37.8099,145.0792
Brighton,679 Hampton St,3,casa,1385000.0,11.2,3186.0,1,2,426.0,120.0,1935.0,-37.9254,145.0045
Brunswick,98 Evans St,3,casa,1060000.0,5.2,3056.0,1,0,257.0,121.0,1935.0,-37.7704,144.9695
Reservoir,1 Mendip Rd,3,casa,1025000.0,11.2,3073.0,1,4,670.0,134.0,1935.0,-37.7242,145.0154
Ormond,16 Sherwood St,3,casa,1535000.0,11.8,3204.0,1,2,578.0,140.0,1935.0,-37.9047,145.0274
Preston,3 Carthew Gr,4,casa,1075000.0,8.8,3072.0,1,2,521.0,146.0,1935.0,-37.73336,145.02344
Brunswick West,15 Wallace St,4,casa,1000000.0,5.9,3055.0,1,1,589.0,148.0,1935.0,-37.7628,144.9459
Brunswick West,171 Union St,3,casa,1095000.0,5.9,3055.0,1,1,411.0,168.0,1935.0,-37.7728,144.9478
Thornbury,51 Alston St,3,casa,887000.0,6.5,3071.0,2,2,540.0,129.0,1935.0,-37.7554,145.0211
Caulfield South,26 Flowers St,3,casa,1577500.0,9.3,3162.0,2,2,357.0,144.0,1935.0,-37.8896,145.0307
Ashburton,3 Dunlop St,3,casa,1555000.0,11.0,3147.0,2,2,731.0,149.0,1935.0,-37.8666,145.0676
Hampton,15 Avelin St,4,casa,1800000.0,13.7,3188.0,2,1,667.0,184.0,1935.0,-37.9315,145.0109
Toorak,16 Cole Ct,3,casa,3270000.0,4.6,3142.0,2,1,363.0,215.0,1935.0,-37.8445,145.0182
Canterbury,18 Irilbarra Rd,4,casa,2950000.0,9.0,3126.0,2,2,687.0,215.0,1935.0,-37.8186,145.0706
Ivanhoe,3 Scotts Pde,4,casa,1720000.0,7.9,3079.0,2,3,631.0,233.0,1935.0,-37.7771,145.0448
Ashburton,33 Highgate Gr,4,casa,1790000.0,11.0,3147.0,2,2,514.0,240.0,1935.0,-37.8664,145.0772
Ivanhoe East,31 Keam St,4,casa,2200000.0,9.0,3079.0,2,2,1004.0,247.0,1935.0,-37.7689,145.0665
Brighton East,13 Robinson St,5,casa,1700000.0,10.7,3187.0,2,1,994.0,274.0,1935.0,-37.9187,145.0187
Glenroy,107 Glenroy Rd,4,casa,1000000.0,13.0,3046.0,2,8,977.0,304.0,1935.0,-37.7063,144.9273
Brighton East,5 Margaret St,2,casa,1780000.0,10.7,3187.0,3,2,635.0,119.0,1935.0,-37.9205,145.0102
Glen Iris,34 Yeovil Rd,4,casa,2850000.0,9.2,3146.0,3,2,1184.0,305.0,1935.0,-37.8526,145.0848
Kew,94 Argyle Rd,4,casa,3550000.0,5.6,3101.0,3,4,992.0,374.0,1935.0,-37.8046,145.0603
Balwyn,349 Union Rd,6,casa,4000000.0,9.7,3103.0,4,7,2051.0,449.0,1935.0,-37.8051,145.1016
Eaglemont,14 Cumberland St,4,casa,2600000.0,10.3,3084.0,2,3,871.0,322.0,1937.0,-37.7612,145.0676
Camberwell,163 Through Rd,3,casa,1302000.0,7.8,3124.0,1,1,427.0,115.0,1938.0,-37.8367,145.0934
West Footscray,1/37 Hampton Pde,3,casa,723000.0,8.2,3012.0,1,2,302.0,125.0,1938.0,-37.8066,144.8666
Hawthorn,530 Burwood Rd,3,casa,1300000.0,4.6,3122.0,2,1,341.0,155.0,1938.0,-37.8236,145.0425
Essendon,31 Graves St,3,casa,1625000.0,8.0,3040.0,2,1,858.0,165.0,1938.0,-37.7417,144.8961
Mont Albert,12 Rostrevor Pde,4,casa,2335000.0,11.8,3127.0,2,2,813.0,170.0,1938.0,-37.8118,145.1065
Ashburton,47 Yuile St,4,casa,1550000.0,11.0,3147.0,2,2,780.0,180.0,1938.0,-37.86,145.0817
Carnegie,48 Lyons St,4,casa,1450000.0,11.4,3163.0,2,2,557.0,200.0,1938.0,-37.8955,145.0515
Brighton,97 Dendy St,5,casa,2730000.0,11.2,3186.0,3,2,895.0,423.0,1938.0,-37.9204,145.0028
Ascot Vale,95 Walter St,4,casa,1480000.0,5.9,3032.0,2,2,597.0,180.0,1939.0,-37.7757,144.9088
Ormond,58 Draper St,4,casa,1845000.0,11.8,3204.0,3,1,718.0,189.0,1939.0,-37.9061,145.0509
Northcote,4 Clifton St,5,casa,1820000.0,5.5,3070.0,3,2,344.0,230.0,1939.0,-37.7677,145.0085
St Kilda,3/38 Barkly St,2,kitnet,503500.0,6.1,3182.0,1,1,683.0,72.0,1940.0,-37.8594,144.9828
Windsor,1/60 McIlwrick St,2,kitnet,611000.0,5.1,3181.0,1,1,598.0,75.0,1940.0,-37.8564,144.9971
Preston,21 George St,2,casa,630000.0,8.8,3072.0,1,1,372.0,82.0,1940.0,-37.7348,144.9852
South Yarra,6 Cliff St,2,casa,1200000.0,3.3,3141.0,1,0,176.0,84.0,1940.0,-37.8436,144.9925
Flemington,4 Farnham St,3,casa,1115000.0,4.4,3031.0,1,1,244.0,84.0,1940.0,-37.7823,144.9278
Brunswick,5 Hanover St,3,casa,985000.0,5.2,3056.0,1,2,384.0,89.0,1940.0,-37.7626,144.9535
Kew,74 Gladstone St,2,casa,1331000.0,5.6,3101.0,1,1,424.0,89.0,1940.0,-37.7995,145.0418
Coburg,2 Franklin St,2,casa,1008000.0,7.8,3058.0,1,3,457.0,89.0,1940.0,-37.7505,144.9725
Footscray,211A Ballarat Rd,2,casa,950000.0,6.4,3011.0,1,2,657.0,92.0,1940.0,-37.7909,144.8884
Toorak,5/3 Tahara Rd,3,kitnet,840000.0,4.6,3142.0,1,1,1678.0,94.0,1940.0,-37.8297,144.88926999999995
West Footscray,50 Hex St,2,casa,770000.0,8.2,3012.0,1,1,267.0,95.0,1940.0,-37.8021,144.8629
Caulfield South,7A Alfada St,2,casa,1225000.0,9.3,3162.0,1,2,284.0,99.0,1940.0,-37.8958,145.0215
Sunshine North,6 Rosewall St,3,casa,665000.0,13.3,3020.0,1,2,707.0,101.0,1940.0,-37.7676,144.8339
Preston,227 Murray Rd,2,casa,850000.0,8.8,3072.0,1,1,356.0,102.0,1940.0,-37.7384,145.0058
Bentleigh,1/30 Daley St,2,casa,855000.0,13.0,3204.0,1,1,296.0,103.0,1940.0,-37.9243,145.0376
Yarraville,3 Freame St,3,casa,1081000.0,7.0,3013.0,1,1,448.0,104.0,1940.0,-37.8171,144.8753
Kingsville,4 Chirnside St,3,casa,817000.0,7.8,3012.0,1,1,259.0,105.0,1940.0,-37.8046,144.8831
Fitzroy North,273 Glenlyon Rd,2,casa,1222500.0,3.5,3068.0,1,2,487.0,105.0,1940.0,-37.7737,144.9822
Essendon West,461 Buckley St,3,casa,787500.0,9.8,3040.0,1,1,556.0,105.0,1940.0,-37.7537,144.8856
Coburg,32 Rose St,2,casa,901000.0,7.8,3058.0,1,1,545.0,107.0,1940.0,-37.7445,144.9471
Flemington,143 Victoria St,3,casa,940000.0,4.4,3031.0,1,1,320.0,110.0,1940.0,-37.78435,144.93056
Yarraville,66 Drew St,2,casa,1256000.0,7.0,3013.0,1,3,531.0,111.0,1940.0,-37.81084,144.89372
Hawthorn East,24 Wiseman St,2,casa,1385000.0,7.5,3123.0,1,2,326.0,113.0,1940.0,-37.8373,145.0455
Brunswick West,63A Hunter St,3,casa,1220000.0,5.9,3055.0,1,1,335.0,113.0,1940.0,-37.76596,144.94495
Heidelberg Heights,1 Shelley St,4,casa,706000.0,10.5,3081.0,1,2,374.0,113.0,1940.0,-37.74365,145.05764
Yarraville,64 Bishop St,3,casa,1055000.0,7.0,3013.0,1,3,670.0,116.0,1940.0,-37.8134,144.8745
Caulfield South,89 Clarence St,2,casa,1340000.0,9.3,3162.0,1,1,505.0,117.0,1940.0,-37.8928,145.0149
Footscray,8 McCubbin St,3,casa,910000.0,6.4,3011.0,1,1,361.0,118.0,1940.0,-37.7913,144.8879
Reservoir,13 Southernhay St,3,casa,787000.0,11.2,3073.0,1,1,563.0,118.0,1940.0,-37.7258,145.0129
Glen Iris,48 Alfred Rd,3,casa,1530000.0,9.2,3146.0,1,1,753.0,118.0,1940.0,-37.8543,145.0889
Yarraville,8 Gordon Pde,3,casa,990000.0,7.0,3013.0,1,2,340.0,119.0,1940.0,-37.81426,144.89416
Footscray,2 Buckingham St,3,casa,747000.0,6.4,3011.0,1,1,246.0,120.0,1940.0,-37.8012,144.8924
Maidstone,13 Burns St,3,casa,865000.0,9.2,3012.0,1,3,381.0,121.0,1940.0,-37.7874,144.8763
Preston,74 Pender St,3,casa,1040000.0,8.8,3072.0,1,2,399.0,121.0,1940.0,-37.7366,145.0063
Moorabbin,1 Otford Cl,3,casa,975000.0,14.6,3189.0,1,2,576.0,121.0,1940.0,-37.9363,145.0495
Oakleigh South,107 Golf Rd,3,casa,1067000.0,14.7,3167.0,1,2,648.0,122.0,1940.0,-37.9196,145.0876
Hughesdale,37 Darling St,3,casa,1210000.0,13.0,3166.0,1,2,730.0,122.0,1940.0,-37.9034,145.0796
Ormond,2 Stewart St,3,casa,940000.0,11.8,3204.0,1,1,397.0,124.0,1940.0,-37.9064,145.0291
Brunswick East,7 Weigall St,3,casa,1500000.0,4.5,3057.0,1,3,446.0,125.0,1940.0,-37.76819,144.9835
Brighton East,67 Centre Rd,2,casa,1445000.0,10.7,3187.0,1,1,649.0,126.0,1940.0,-37.9153,145.0142
Spotswood,27 The Avenue,3,casa,1016000.0,7.7,3015.0,1,1,320.0,134.0,1940.0,-37.8277,144.8841
Preston,92 Gilbert Rd,2,casa,986000.0,8.8,3072.0,1,1,472.0,139.0,1940.0,-37.7484,144.9886
Bentleigh East,601 South Rd,3,casa,900000.0,13.9,3165.0,1,3,780.0,140.0,1940.0,-37.9347,145.0507
Pascoe Vale,12 Derby St,4,casa,650000.0,9.9,3044.0,1,2,410.0,141.0,1940.0,-37.7346,144.9456
West Footscray,10 Neil St,4,casa,970000.0,8.2,3012.0,1,2,528.0,143.0,1940.0,-37.79275,144.87724
Preston,10 Pender St,4,casa,875000.0,8.8,3072.0,1,2,400.0,147.0,1940.0,-37.7371,145.0111
Bentleigh,72 Daley St,4,casa,1281000.0,13.0,3204.0,1,5,594.0,150.0,1940.0,-37.9206,145.0383
Brunswick,30 Charles St,4,casa,1350000.0,5.2,3056.0,1,1,370.0,151.0,1940.0,-37.7728,144.9639
Ashburton,45 Yuile St,3,casa,1655000.0,11.0,3147.0,1,3,780.0,152.0,1940.0,-37.8599,145.0815
Ormond,16 Wallen Rd,3,casa,1322000.0,11.8,3204.0,1,1,551.0,156.0,1940.0,-37.9036,145.0521
Camberwell,26 Hunter Rd,3,casa,2105000.0,7.8,3124.0,1,2,692.0,164.0,1940.0,-37.8379,145.0849
Bentleigh,156 Patterson Rd,3,casa,1110000.0,13.0,3204.0,1,2,692.0,164.0,1940.0,-37.9263,145.04
Kingsville,363 Geelong Rd,3,casa,860000.0,7.8,3012.0,1,3,555.0,168.0,1940.0,-37.80826,144.88034
Hawthorn East,16 Leura Gr,4,casa,2800000.0,7.5,3123.0,1,2,764.0,171.0,1940.0,-37.8374,145.0486
Ivanhoe,79 Marshall St,4,casa,1460000.0,7.9,3079.0,1,2,605.0,181.0,1940.0,-37.7707,145.0467
Sunshine,24 Martin St,4,casa,1350500.0,12.6,3020.0,1,0,726.0,181.0,1940.0,-37.7864,144.8353
Reservoir,16 Birdwood St,4,casa,1186000.0,11.2,3073.0,1,2,895.0,188.0,1940.0,-37.7285,144.9964
Glen Iris,60 Madeline St,3,casa,1420000.0,9.2,3146.0,1,2,615.0,607.0,1940.0,-37.8578,145.0919
Yarraville,260 Francis St,3,casa,892000.0,7.0,3013.0,1,2,449.0,106.76,1940.0,-37.81942,144.8905
Kew,71 Peel St,3,casa,1575000.0,5.6,3101.0,2,2,397.0,80.0,1940.0,-37.8013,145.0335
Richmond,10 Botherambo St,2,apartamento,1200000.0,2.6,3121.0,2,1,170.0,89.0,1940.0,-37.8229,144.9931
Bentleigh,74 Fromer St,4,casa,1328000.0,13.0,3204.0,2,2,610.0,112.0,1940.0,-37.9291,145.0472
Fawkner,53 Queens Pde,3,casa,783000.0,12.4,3060.0,2,1,603.0,115.0,1940.0,-37.7194,144.9678
Ascot Vale,6 Waller Ct,3,casa,786000.0,5.9,3032.0,2,1,576.0,120.0,1940.0,-37.7816,144.9217
Preston,31 Benambra St,3,casa,800000.0,8.8,3072.0,2,2,319.0,124.0,1940.0,-37.73858,144.98254
Brunswick East,120 Victoria St,3,casa,1325000.0,4.5,3057.0,2,2,190.0,135.0,1940.0,-37.7684,144.9739
Reservoir,28 Mendip Rd,3,casa,882500.0,11.2,3073.0,2,2,681.0,135.0,1940.0,-37.7217,145.0163
Coburg,3 Mavis St,3,casa,1202000.0,7.8,3058.0,2,2,423.0,140.0,1940.0,-37.7493,144.9559
Preston,26 Paywit St,3,casa,1127000.0,8.8,3072.0,2,2,590.0,140.0,1940.0,-37.7336,144.9958
Yarraville,13 Benbow St,3,casa,1000000.0,7.0,3013.0,2,1,448.0,147.0,1940.0,-37.8228,144.8799
Balwyn,165 Balwyn Rd,4,casa,1900000.0,9.7,3103.0,2,1,665.0,155.0,1940.0,-37.8057,145.0825
Box Hill,5 Wavell St,3,casa,1400000.0,13.1,3128.0,2,1,643.0,159.0,1940.0,-37.8285,145.1272
Sunshine,142 Cornwall Rd,3,casa,800000.0,12.6,3020.0,2,1,655.0,165.0,1940.0,-37.7809,144.8424
Burwood,46 Cumming St,4,casa,1601000.0,11.7,3125.0,2,1,863.0,165.0,1940.0,-37.85392,145.11272
Pascoe Vale,199 Cumberland Rd,3,casa,900000.0,9.9,3044.0,2,2,608.0,168.0,1940.0,-37.7182,144.9405
Ashburton,4 Vears Rd,3,casa,1830000.0,11.0,3147.0,2,3,724.0,168.0,1940.0,-37.8619,145.0879
Coburg,114 Reynard St,3,casa,1064000.0,7.8,3058.0,2,1,417.0,178.0,1940.0,-37.7478,144.9583
Hughesdale,14 Bowmore St,4,casa,1700000.0,13.0,3166.0,2,2,545.0,180.0,1940.0,-37.9002,145.0773
Port Melbourne,366 Williamstown Rd,4,casa,2105000.0,3.8,3207.0,2,3,611.0,181.0,1940.0,-37.8349,144.9266
Rosanna,101 Ellesmere Pde,4,casa,1020000.0,11.4,3084.0,2,2,843.0,181.0,1940.0,-37.7348,145.0656
Kew,21 Grandview Tce,4,casa,1800000.0,5.6,3101.0,2,2,586.0,187.0,1940.0,-37.7933,145.0343
Brunswick East,55 King St,4,casa,1550000.0,4.5,3057.0,2,2,470.0,191.0,1940.0,-37.7735,144.9833
Essendon,26 Bradshaw St,4,casa,1402000.0,8.0,3040.0,2,1,554.0,193.0,1940.0,-37.7508,144.8937
Bentleigh,39 Luckins Rd,4,casa,1300000.0,13.0,3204.0,2,2,697.0,194.0,1940.0,-37.9318,145.0474
Murrumbeena,7 Merrimu St,4,casa,1656000.0,12.1,3163.0,2,2,651.0,199.0,1940.0,-37.77123,144.92938
Bentleigh,23 Yawla St,3,casa,1500000.0,13.0,3204.0,2,1,565.0,222.0,1940.0,-37.9134,145.0263
Heidelberg,6 Bolden St,5,casa,1401000.0,10.6,3084.0,2,2,580.0,222.0,1940.0,-37.7539,145.0577
Hampton,41 Orlando St,4,casa,2160000.0,13.7,3188.0,2,1,577.0,231.0,1940.0,-37.9382,144.9997
Brighton East,55 Baird St,4,casa,2050000.0,10.7,3187.0,2,4,678.0,233.0,1940.0,-37.9255,145.0118
Newport,74 Challis St,4,casa,1560000.0,8.4,3015.0,2,3,480.0,235.0,1940.0,-37.84334000000001,145.0761
Kew East,106 Kilby Rd,5,casa,1950000.0,7.5,3102.0,2,3,711.0,253.0,1940.0,-37.7923,145.0528
Ashburton,9 Pitt St,4,casa,1950000.0,11.0,3147.0,2,2,844.0,278.0,1940.0,-37.8715,145.0688
Brunswick,29 Stewart St,4,casa,2230000.0,5.2,3056.0,2,3,851.0,287.0,1940.0,-37.7637,144.9662
Pascoe Vale,101 Northumberland Rd,3,apartamento,600000.0,9.9,3044.0,3,1,205.0,107.0,1940.0,-37.7212,144.9326
Glen Iris,4 Rowen St,4,casa,1760000.0,9.2,3146.0,3,3,622.0,160.0,1940.0,-37.85799,145.06816
West Footscray,22 Clarendon Pde,6,casa,1020000.0,8.2,3012.0,3,2,554.0,199.0,1940.0,-37.8053,144.8681
Eaglemont,76 Castle St,4,casa,1650000.0,10.3,3084.0,3,2,724.0,327.0,1940.0,-37.7594,145.0594
Kew,60 Childers St,3,casa,1500000.0,5.6,3101.0,1,2,857.0,130.0,1941.0,-37.7981,145.0423
Glen Iris,21 Beatrice St,3,casa,1665000.0,9.2,3146.0,1,2,685.0,143.0,1941.0,-37.8538,145.0842
Sunshine,7 High St,3,casa,780000.0,12.6,3020.0,1,0,486.0,115.0,1943.0,-37.7886,144.8438
Brunswick,7 Louisa St,3,casa,1020000.0,5.2,3056.0,1,3,308.0,119.0,1943.0,-37.7649,144.9641
Toorak,1/3 Glover Ct,3,casa,1435000.0,4.6,3142.0,1,0,889.0,135.0,1943.0,-37.8328,145.0065
Balwyn,47 Naroo St,3,casa,1750000.0,9.7,3103.0,2,3,613.0,193.0,1943.0,-37.8056,145.0688
Coburg,48 Murray St,3,casa,1130000.0,7.8,3058.0,1,3,206.0,80.0,1945.0,-37.7382,144.9563
Sunshine North,114 Warwick Rd,3,casa,503000.0,13.3,3020.0,1,1,251.0,90.0,1945.0,-37.7682,144.8335
Box Hill,6 Archibald St,3,casa,4000000.0,13.1,3128.0,1,2,763.0,120.0,1945.0,-37.8166,145.1215
Northcote,99 Christmas St,2,casa,1575000.0,5.5,3070.0,1,3,607.0,126.0,1945.0,-37.7668,145.0149
Bentleigh,13 Somers St,3,casa,1317500.0,13.0,3204.0,1,1,576.0,127.0,1945.0,-37.9149,145.0254
Ivanhoe,950 Heidelberg Rd,3,casa,1155000.0,7.9,3079.0,1,2,537.0,170.0,1945.0,-37.7773,145.0379
West Footscray,91 Suffolk St,2,casa,888000.0,8.2,3012.0,1,2,401.0,113.81,1945.0,-37.79161,144.86647
Prahran,1/38 Donald St,2,apartamento,1540000.0,4.5,3181.0,2,1,113.0,104.0,1945.0,-37.8481,144.9869
Ashburton,3 Mustang Ct,3,casa,1500000.0,11.0,3147.0,2,2,710.0,139.0,1945.0,-37.8653,145.0897
Sunshine,68 Chapman St,4,casa,895000.0,12.6,3020.0,2,3,430.0,144.0,1945.0,-37.7939,144.8283
Ashburton,18 Glen Rd,3,casa,1665000.0,11.0,3147.0,2,3,702.0,145.0,1945.0,-37.8737,145.0695
Essendon North,10 Cowper St,4,casa,1291000.0,9.4,3041.0,2,2,521.0,157.0,1945.0,-37.88189000000001,144.98695
Carnegie,39 Elimatta Rd,3,casa,1430000.0,11.4,3163.0,2,2,603.0,166.0,1945.0,-37.9023,145.0568
Brighton East,15 Hodder St,5,casa,1600000.0,10.7,3187.0,2,2,616.0,245.0,1945.0,-37.9084,145.0221
Seddon,11 Hotham St,3,casa,1395000.0,6.6,3011.0,1,2,467.0,155.0,1946.0,-37.8093,144.8941
Ashburton,19 Poulter St,3,casa,1650000.0,11.0,3147.0,1,1,697.0,164.0,1947.0,-37.8636,145.0903
Bentleigh,592 Centre Rd,3,casa,1125000.0,13.0,3204.0,1,2,584.0,116.0,1948.0,-37.9199,145.0477
Brighton East,48 Thomas St,2,casa,1000000.0,10.7,3187.0,1,2,564.0,131.0,1948.0,-37.9143,145.0238
Balwyn,13 Naroo St,4,casa,1800000.0,9.7,3103.0,2,2,577.0,200.0,1948.0,-37.8032,145.0693
Brighton East,139 Thomas St,4,casa,1650000.0,10.7,3187.0,3,2,598.0,212.0,1948.0,-37.9075,145.0248
Hughesdale,30 Kinrade St,3,casa,1316000.0,13.0,3166.0,1,2,715.0,126.0,1949.0,-37.9072,145.0762
Bentleigh East,54 Elizabeth St,3,casa,1197000.0,13.9,3165.0,1,2,692.0,147.0,1949.0,-37.9232,145.0563
Richmond,3/11 Brougham St,1,kitnet,370000.0,2.6,3121.0,1,1,502.0,38.0,1950.0,-37.8214,144.9997
St Kilda,3/19 Herbert St,2,kitnet,520000.0,6.1,3182.0,1,1,1034.0,55.0,1950.0,-37.8717,144.9829
Hawthorn East,4/3 Brookfield Ct,1,kitnet,430000.0,7.5,3123.0,1,1,2276.0,58.0,1950.0,-37.8343,145.0547
Preston,44 Stokes St,2,casa,780000.0,8.8,3072.0,1,1,310.0,72.0,1950.0,-37.7455,144.9954
Braybrook,96 Duke St,2,casa,610000.0,10.8,3019.0,1,2,555.0,74.0,1950.0,-37.78541,144.84633
Brighton,4/14 Brickwood St,2,kitnet,858000.0,11.2,3186.0,1,1,107.0,75.0,1950.0,-37.8958,144.9982
Braybrook,25 Lily St,2,casa,645000.0,10.8,3019.0,1,1,566.0,75.0,1950.0,-37.7839,144.8524
Moorabbin,38 Grandview Gr,2,casa,950000.0,14.6,3189.0,1,3,649.0,75.0,1950.0,-37.9424,145.0464
Brunswick West,22 Henderson St,2,casa,825000.0,5.9,3055.0,1,0,207.0,77.0,1950.0,-37.76221,144.94055
Heidelberg Heights,33 Shakespeare Gr,2,casa,680000.0,10.5,3081.0,1,1,605.0,78.0,1950.0,-37.7365,145.0545
Glenroy,24 Trevannion St,3,casa,711500.0,13.0,3046.0,1,3,667.0,81.0,1950.0,-37.7005,144.9185
Burwood,29 Meldan St,2,casa,1350000.0,11.7,3125.0,1,2,593.0,82.0,1950.0,-37.8444,145.1054
Braybrook,16 Menzies St,2,casa,760000.0,10.8,3019.0,1,1,604.0,82.0,1950.0,-37.78199,144.85283
Hughesdale,1051 North Rd,2,casa,677500.0,13.0,3166.0,1,4,575.0,83.0,1950.0,-37.9084,145.0775
Heidelberg Heights,18 Shelley St,2,casa,584000.0,10.5,3081.0,1,1,428.0,84.0,1950.0,-37.7418,145.0513
Glenroy,17 Bindi St,3,casa,597500.0,13.0,3046.0,1,2,663.0,84.0,1950.0,-37.6962,144.93763
Heidelberg Heights,19 Collins St,2,casa,650000.0,10.5,3081.0,1,3,620.0,85.0,1950.0,-37.7377,145.0541
Glenroy,40 View St,3,casa,525000.0,13.0,3046.0,1,1,665.0,85.0,1950.0,-37.6966,144.9331
Reservoir,19 Drysdale St,3,casa,723000.0,11.2,3073.0,1,1,535.0,86.0,1950.0,-37.7299,145.0242
Ashwood,4 Teck St,2,casa,1110000.0,12.2,3147.0,1,1,586.0,86.0,1950.0,-37.8683,145.1082
Preston,65 Albert St,3,casa,615000.0,8.8,3072.0,1,2,493.0,87.0,1950.0,-37.7441,145.0221
Altona,22 Fenfield St,3,casa,678000.0,13.8,3018.0,1,2,606.0,87.0,1950.0,-37.8608,144.8124
Heidelberg West,23 Catalina St,2,casa,620000.0,9.4,3081.0,1,2,668.0,88.0,1950.0,-37.7389,145.0393
Watsonia,1/42 Wattle Dr,3,casa,582000.0,14.9,3087.0,1,0,302.0,90.0,1950.0,-37.7163,145.0768
Albion,12 Coolamon St,2,casa,600000.0,13.9,3020.0,1,1,534.0,90.0,1950.0,-37.7795,144.8204
Preston,3 Leopold St,2,casa,886000.0,8.8,3072.0,1,2,467.0,92.0,1950.0,-37.7345,144.9977
Fairfield,229 Rathmines St,2,casa,1220000.0,5.8,3078.0,1,2,537.0,92.0,1950.0,-37.7689,145.0177
Bellfield,129 Liberty Pde,3,casa,625000.0,9.5,3081.0,1,2,609.0,93.0,1950.0,-37.7504,145.0335
Pascoe Vale,6 Collings Ct,2,casa,810000.0,9.9,3044.0,1,1,783.0,94.0,1950.0,-37.7196,144.9485
Heidelberg Heights,79 Outhwaite Rd,3,casa,657000.0,10.5,3081.0,1,1,317.0,95.0,1950.0,-37.73965,145.05086
Brunswick West,10 Yarrabin St,3,casa,810000.0,5.9,3055.0,1,2,349.0,95.0,1950.0,-37.7589,144.9368
Spotswood,47 Hudsons Rd,3,casa,1080000.0,7.7,3015.0,1,2,472.0,95.0,1950.0,-37.8302,144.8885
Preston,34 Booth St,2,casa,890000.0,8.8,3072.0,1,3,493.0,95.0,1950.0,-37.74,144.9821
Ashwood,5 Harcourt St,2,casa,1495000.0,12.2,3147.0,1,2,803.0,95.0,1950.0,-37.8683,145.10638
Coburg North,5 Rollo St,3,casa,780000.0,9.2,3058.0,1,2,307.0,96.0,1950.0,-37.7215,144.9533
Reservoir,13 Whitby St,3,casa,767000.0,11.2,3073.0,1,2,561.0,96.0,1950.0,-37.7098,145.0031
