Bairro,Endereco,Quartos,Tipo,Preco,Distancia do aeroporto,CEP,Banheiro,Vagas,Area terreno,Area construida,Ano da construcao,Latitude,Longitude
South Melbourne,403 Park St,3,casa,,2.1,3205,2,0,104,125,1800,-37.83702,144.95142
Collingwood,2/79 Oxford St,2,kitnet,855000,1.6,3066,1,1,2886,122,1830,-37.8042,144.9845
Fitzroy,11 Henry St,2,casa,677000,1.6,3065,1,0,67,,1850,-37.7969,144.9759
St Kilda,51/167 Fitzroy St,3,kitnet,1600000,6.1,3182,2,2,,3,1850,-37.8584,144.9802
Prahran,602/220 Commercial Rd,2,kitnet,841000,4.5,3181,2,1,,101,1850,-37847,144.9936
Richmond,22a Stanley St,3,casa,1600000,2.6,3121,2,2,80,144,1850,-37.8233,144.9947
Fitzroy,52 Nicholson St,4,casa,3310000,1.6,3065,4,2,337,291,1854,-37.8052,144.9739
South Melbourne,352 Moray St,4,casa,2260000,2.1,3205,3,0,190,232,1856,-37.8377,144.9653
St Kilda,96 Pakington St,4,casa,,6.1,3182,2,1,467,,1857,-37.8661,144.9901
Carlton,2/100 Keppel St,2,apartamento,960000,1.8,3053,2,1,,90,1860,-37.79468,144.96766
Port Melbourne,172 Liardet St,3,casa,,3.8,3207,2,1,200,96,1860,-37.8375,144.9408
Abbotsford,17 Raphael St,4,casa,,2.5,3067,2,0,230,147,1860,-37.8066,144.9936
South Melbourne,315 Moray St,4,casa,2180000,2.1,3205,3,1,200,153,1860,-37836,144965
Port Melbourne,175 Stokes St,3,casa,2200000,3.8,3207,2,0,250,280,1863,-37.8381,144.9391
South Melbourne,52 Eastern Rd,3,casa,2525000,2.1,3205,2,1,234,,1863,-37.8355,144.9663
St Kilda,7 Robe St,3,casa,2720000,6.1,3182,2,0,367,,1868,-37.8658,144.9766
West Melbourne,218 Adderley St,3,casa,1750000,1.9,3003,1,1,160,,1870,-37.75228,144.88914
Northcote,13 Helen St,4,casa,1950000,5.5,3070,1,2,608,,1870,-37.7731,144.9967
Kew,62 Wiltshire Dr,3,apartamento,690000,5.6,3101,1,2,111,3,1872,-37.79413,
West Melbourne,47 Hawke St,5,casa,,1.9,3003,1,1,221,,1872,-37.8065,144.9479
Parkville,152 Park Dr,2,casa,2200000,2.6,3052,2,1,190,172,1875,-37.7928,144.9575
Melbourne,804/394 Collins St,2,kitnet,,2.8,3000,2,2,,78,1876,-37.8168,144.9612
South Melbourne,372 Dorcas St,3,casa,2300000,2.1,3205,2,2,,260,1877,-37.8352,144952
Flemington,8/300 Racecourse Rd,1,kitnet,395000,4.4,3031,1,1,818,50,1880,-37788,144.9306
Carlton,100 Faraday St,2,casa,1010000,1.8,3053,1,0,101,60,1880,-37.7989,144.9713
Collingwood,178 Keele St,2,casa,,1.6,3066,1,0,122,64,1880,-37.7976,144.9929
Fitzroy North,470 Brunswick St,2,casa,860000,3.5,3068,1,0,104,70,1880,-37.7927,144.9796
Prahran,47 Clifton St,2,casa,815000,4.5,3181,1,0,96,71,1880,-37.8501,144.9953
North Melbourne,12 Curzon St,2,casa,885000,2.3,3051,1,1,111,73,1880,-37.8044,144.9481
South Yarra,6 Medley St,2,casa,,3.3,3141,1,0,151,74,1880,-37.8431,144.9932
Carlton,120 Faraday St,2,casa,,1.8,3053,1,1,104,75,1880,-37.7988,144.9707
Carlton North,94 Princes St,2,casa,,3.2,3054,1,0,115,78,1880,-37.7925,144.9724
Armadale,12 Baldwin St,3,casa,,6.3,3143,1,0,151,80,1880,-37.8549,145.0219
Fitzroy,135 George St,2,casa,,1.6,3065,1,2,356,80,1880,-37.8047,144.9807
Yarraville,25 Norfolk St,3,casa,950000,7,3013,1,2,240,84,1880,-37.8202,144.8896
Clifton Hill,66 Noone St,2,casa,780000,3.4,3068,1,1,155,85,1880,-37.7934,144.9922
Collingwood,5 Charlotte St,2,casa,1000000,1.6,3066,1,2,159,86,1880,-37.7962,144.9887
Fitzroy North,80 Michael St,2,casa,,3.5,3068,1,0,176,89,1880,-37.78562,144.98238
Collingwood,6/78 Oxford St,2,kitnet,910000,1.6,3066,1,1,,97,1880,-37.8035,144985
Yarraville,24 Ovens St,3,casa,,7,3013,1,0,316,98,1880,-37.8182,144.8922
Collingwood,1/78 Oxford St,2,apartamento,945000,1.6,3066,1,1,15900,98,1880,-37.80352,144.98503
Yarraville,3 Cuming St,2,casa,856000,7,3013,1,1,261,100,1880,-37.8157,144887
Brunswick,132 Gold St,3,casa,,5.2,3056,1,1,182,104,1880,-37774,144.9546
Collingwood,84 Budd St,3,casa,1075000,1.6,3066,1,0,183,104,1880,-37.7948,144.9875
Port Melbourne,89 Cruikshank St,3,casa,1470000,3.8,3207,1,0,153,109,1880,-37.8382,144.9469
South Melbourne,144 Cobden St,3,casa,1405000,2.1,3205,1,1,181,117,1880,-37.8365,144.9631
Clifton Hill,3 Hodgkinson St,3,casa,1360000,3.4,3068,1,0,118,118,1880,-37.7921,144.9858
Fitzroy North,167 Alexandra Pde,2,casa,846000,3.5,3068,1,0,160,119,1880,-37.79327,144.98358
Brunswick,46 Tinning St,2,casa,765000,5.2,3056,1,1,199,120,1880,-37759,144.9597
Albert Park,81 Richardson St,3,casa,,3.3,3206,1,2,316,125,1880,-37.8449,144.9536
South Melbourne,168 Napier St,3,casa,,2.1,3205,1,0,128,141,1880,-37.8364,144.9614
Parkville,154 Park Dr,2,casa,,2.6,3052,1,0,262,149,1880,-37.7928,144.9576
Newport,53 Mason St,4,casa,1115000,8.4,3015,1,1,,163,1880,-37.8423,144.8795
South Melbourne,194 Napier St,4,casa,,2.1,3205,1,1,165,169,1880,-37.8366,144.9604
Hawthorn,215 Auburn Rd,3,casa,,4.6,3122,1,0,217,171,1880,-37.82772,145.02607
Hawthorn East,18 Gillman St,3,casa,1890000,7.5,3123,1,2,477,173,1880,-37.8257,145.0514
Williamstown,139 Cecil St,4,casa,2255000,8,3016,1,3,765,257,1880,-37.8621,144.8999
South Melbourne,55 Cobden St,2,casa,1024000,2.1,3205,1,0,102,,1880,-37.83804,144.95852
Port Melbourne,89 Raglan St,4,casa,1502000,3.8,3207,1,2,146,,1880,-37.8343,144.9452
West Melbourne,53 Miller St,2,casa,1053000,1.9,3003,1,0,147,,1880,-37.80943,144.94512
Brunswick,35 Charles St,2,casa,871000,5.2,3056,1,1,215,,1880,-37.7722,144.9637
Coburg,28 Rodda St,3,casa,985000,7.8,3058,1,1,309,,1880,-37.7434,144.9697
Brunswick,9 Goodman St,2,casa,955000,5.2,3056,1,0,1328,,1880,-37.77313,144.95677
Coburg,11/5 Industry La,2,kitnet,485000,7.8,3058,2,1,,96,1880,-37.7367,144.9701
Coburg,65 Darling St,1,ktnet,500000,7.0,3058,2,1,,100,1880,-37.7369,144.9301
Moonee Ponds,65 Darling St,3,casa,1240000,6.9,3039,2,2,275,106,1880,-37.76785,144.91729
West Melbourne,34 Eades Pl,3,casa,,1.9,3003,2,0,57,110,1880,-37.8058,144.9511
Abbotsford,42 Henry St,3,casa,1200000,2.5,3067,2,1,113,110,1880,-37.8056,144993
South Yarra,49 Leopold St,4,casa,2600000,3.3,3141,2,2,141,127,1880,-37.8366,144.9827
Fitzroy North,59 Newry St,3,casa,,3.5,3068,2,0,163,128,1880,-37.7906,144.9804
Prahran,68 Donald St,3,casa,,4.5,3181,2,1,197,130,1880,-37.8467,144.9871
Carlton,96 Barkly St,3,casa,,1.8,3053,2,0,110,143,1880,-37.7995,144.9717
South Melbourne,32 Martin St,3,casa,,2.1,3205,2,0,141,143,1880,-37.8387,144959
Albert Park,27 Barrett St,4,casa,2140000,3.3,3206,2,1,183,145,1880,-37.8434,144.9495
South Yarra,7 Cassell St,2,casa,1710000,3.3,3141,2,0,208,145,1880,-37.83664,
North Melbourne,2 Haines St,4,casa,,2.3,3051,2,2,156,150,1880,-37.7987,144.9499
Fitzroy,60 Bell St,4,casa,1620000,1.6,3065,2,1,132,165,1880,-37.8004,144.9768
Middle Park,82 Hambleton St,3,casa,1500000,4.1,3206,2,1,151,165,1880,-37847,144.9594
Cremorne,443 Punt Rd,3,casa,1280000,2.5,3121,2,2,324,165,1880,-37.8278,144.9885
Cremorne,443 Punt Rd,3,casa,1475000,2.5,3121,2,2,324,165,1880,-37.8278,144.9885
Port Melbourne,59 Heath St,3,casa,1670000,3.8,3207,2,1,140,169,1880,-37.8353,144.9442
Windsor,23 Raleigh St,4,casa,,5.1,3181,2,0,310,169,1880,-37.8522,144.9858
Kew,116 Edgevale Rd,3,casa,,5.6,3101,2,1,267,176,1880,-37.8114,145.0433
Fitzroy,160 Nicholson St,3,casa,,1.6,3065,2,0,150,180,1880,-37.79618,144.97497
Albert Park,104 Richardson St,4,casa,2300000,3.3,3206,2,1,153,180,1880,-37.8447,144.9523
Albert Park,2 Dundas Pl,3,casa,2615000,3.3,3206,2,1,177,181,1880,-37.8415,144.9585
Elsternwick,17 Staniland Gr,4,casa,2600000,8.5,3185,2,2,527,184,1880,-37883,145.0043
Carlton,106 Canning St,4,casa,,1.8,3053,2,0,224,191,1880,-37.7963,144.9734
St Kilda,7 Victoria St,3,casa,2000000,6.1,3182,2,2,176,192,1880,-37.8641,144.9739
Moonee Ponds,43 Chaucer St,3,casa,1440000,6.9,3039,2,1,287,196,1880,-37.7698,144.9214
St Kilda,30 Odessa St,4,casa,1950000,6.1,3182,2,2,436,211,1880,-37.8629,144.9887
Coburg,247 Moreland Rd,4,casa,,7.8,3058,2,2,229,220,1880,-37.7549,144.9609
Kew,51 Davis St,4,casa,,5.6,3101,2,3,840,223,1880,-37.8108,145.0463
Port Melbourne,203 Station St,3,casa,2400000,3.8,3207,2,2,368,226,1880,-37.83473,144.9389
Surrey Hills,15 Durham Rd,4,casa,,11.2,3127,2,4,1000,232,1880,-37.82214,
South Yarra,18 Avoca St,4,casa,5700000,3.3,3141,2,0,292,272,1880,-37.8377,144.9894
Brighton,60 Halifax St,4,casa,,11.2,3186,2,2,993,300,1880,-37.9157,145.0029
Fitzroy North,43 Woodside St,2,casa,1802500,3.5,3068,2,1,182,,1880,-37.78434,144.98048
Moonee Ponds,28 Vine St,3,casa,1683000,6.9,3039,2,2,222,,1880,-37.7688,144.9291
South Yarra,10 Luxton Rd,3,casa,2870000,3.3,3141,2,2,350,,1880,-37.8451,145.0019
Fitzroy North,86 Clauscen St,3,casa,1710000,3.5,3068,2,0,357,,1880,-37.7778,144.9824
Surrey Hills,54 Croydon Rd,4,casa,2003000,11.2,3127,2,1,383,,1880,-37.8234,145.0923
Brunswick,314 Barkly St,3,casa,1310000,5.2,3056,2,2,426,,1880,-37.7759,144.9578
Moonee Ponds,1 Athol St,4,casa,1350000,6.9,3039,2,2,447,,1880,-37.7704,144.9199
Hampton,38 Orlando St,3,casa,2439500,13.7,3188,2,2,662,,1880,-37.9384,145.0002
Albert Park,81 Merton St,4,casa,,3.3,3206,3,0,135,210,1880,-37.84355,144.95496
North Melbourne,10 Canning St,4,casa,2920000,2.3,3051,3,4,310,276,1880,-37.7958,144944
West Melbourne,96 Roden St,3,casa,2370000,1.9,3003,3,2,265,280,1880,-37.8073,144.9481
Brighton,161 Church St,5,casa,5800000,11.2,3186,4,4,1276,,1880,-37.9164,144.99742
Canterbury,49 Mangarra Rd,5,casa,8000000,9,3126,5,4,2079,464.3,1880,-37.81788,145.06939
North Melbourne,112 Dryburgh St,4,casa,,2.3,3051,3,0,169,201,1881,-37804,144.9436
Carlton North,377 Canning St,3,casa,,3.2,3054,2,1,163,167,1883,-37.7877,144.9743
St Kilda,18 Crimea St,5,casa,5046000,6.1,3182,3,3,1294,378,1884,-37.8589,144.9883
Fitzroy North,2 Scotchmer St,2,casa,1210000,3.5,3068,1,1,223,118,1885,-37.7829,144.9782
Kew,17 Gladstone St,3,casa,1410000,5.6,3101,1,2,304,127,1885,-37.8023,145.0404
Flemington,43 Finsbury St,3,casa,1110000,4.4,3031,1,1,272,131,1885,-37.7857,144931
Albert Park,5 Dundas Pl,3,casa,,3.3,3206,1,0,144,160,1885,-37.84207,144.95859
South Yarra,171 Williams Rd,3,casa,,3.3,3141,1,2,222,164,1885,-37.8474,145.0031
Hawthorn,4 Falmouth St,2,casa,1828500,4.6,3122,1,0,243,,1885,-37.8202,145.0409
Box Hill,10 Kent Rd,5,casa,,13.1,3128,2,2,712,238,1885,-37.8245,145121
Elsternwick,53 Shoobra Rd,4,casa,2600000,8.5,3185,3,2,701,273,1885,-37.8897,145008
Malvern East,558 Waverley Rd,3,casa,1500000,11.2,3145,1,2,888,165,1886,-37.8799,145.0738
Brighton East,12 Agnew St,3,casa,2291000,10.7,3187,2,2,530,,1886,-37.91185,145.01103
Newport,75 The Strand,4,casa,3420000,8.4,3015,2,2,757,,1886,-37849,144.8947
Kensington,14 Altona St,2,apartamento,812000,4.2,3031,1,0,132,79,1887,-37.7989,144.9275
Ascot Vale,75 Maribyrnong Rd,6,casa,2250000,5.9,3032,3,2,1012,435,1887,-37.77214,144.91838
Ascot Vale,75 Maribyrnong Rd,6,casa,2425000,5.9,3032,3,2,1014,435,1887,-37.7721,144.9184
Prahran,20/67 High St,1,kitnet,492000,4.5,3181,1,1,1768,45,1888,-37851,144988
Albert Park,13/123 Beaconsfield Pde,1,kitnet,1100000,3.3,3206,1,1,,64,1888,-37.8487,144.9511
Prahran,16/67 High St,2,kitnet,,4.5,3181,1,1,,74,1888,-37851,144988
Prahran,12/67 High St,2,kitnet,530000,4.5,3181,1,1,,76,1888,-37851,144988
Armadale,28 Cambridge St,3,casa,1870000,6.3,3143,1,1,217,116,1888,-37.8592,145.0182
Prahran,8/67 High St,2,kitnet,700000,4.5,3181,1,1,,,1888,-37851,144988
Clifton Hill,63 Spensley St,3,casa,,3.4,3068,1,0,152,,1888,-37.7885,144.9986
Armadale,1 Cambridge St,2,casa,,6.3,3143,1,2,230,,1888,-37.8593,145017
Abbotsford,22 Lulie St,3,casa,1165000,2.5,3067,2,0,92,114,1888,-37.80523,145.00265
Coburg,13 Hudson St,4,casa,1160000,7.8,3058,2,5,371,,1888,-37.7436,144962
Armadale,7 Llaneast St,3,casa,1939000,6.3,3143,2,2,296,150,1889,-37.8614,145.0274
Collingwood,12/120 Cambridge St,2,kitnet,1645000,1.6,3066,1,3,,2,1890,-37.8046,144.9858
South Yarra,4/943 Punt Rd,2,kitnet,520000,3.3,3141,1,1,,62,1890,-37.8323,144.9876
Newport,8 Crawford St,2,casa,650000,8.4,3015,1,1,149,62,1890,-37.8491,144.8903
North Melbourne,649 Queensberry St,2,casa,940000,2.3,3051,1,0,89,65,1890,-37.80337,144.94897
Brunswick East,5 Linden St,2,casa,1015000,4.5,3057,1,0,137,67,1890,-37.77384,144.97332
Albert Park,6 Brooke St,2,casa,980000,3.3,3206,1,0,79,68,1890,-37.8387,144.9519
South Yarra,3 Hyland St,2,casa,,3.3,3141,1,0,101,68,1890,-37.8456,144.9884
Carlton,83 Princes St,2,casa,720000,1.8,3053,1,1,117,71,1890,-37793,144.9728
Fitzroy North,181 Rae St,2,casa,937500,3.5,3068,1,0,100,72,1890,-37788,144.9791
Melbourne,17/180 Little Collins St,2,kitnet,,2.8,3000,1,1,,73,1890,-37.8139,144.9679
Fitzroy North,22 Coleman St,2,casa,,3.5,3068,1,0,116,73,1890,-37.7916,144.9811
Footscray,119 Droop St,2,casa,745000,6.4,3011,1,1,355,74,1890,-37.7931,144.8938
Yarraville,121 Simpson St,2,casa,,7,3013,1,0,133,75,1890,-37.8169,144.8877
Brunswick,13 Goodman St,2,casa,884000,5.2,3056,1,0,148,75,1890,-37.77305,144.95681
Flemington,121 Princes St,2,casa,1060000,4.4,3031,1,0,209,75,1890,-37.78464,144.92805
Fitzroy North,92 Scotchmer St,2,casa,1008000,3.5,3068,1,1,150,77,1890,-37.7833,144.9819
Richmond,276 Mary St,2,casa,,2.6,3121,1,0,151,77,1890,-37.82212,144.99554
Ascot Vale,8 Geddes St,2,casa,710000,5.9,3032,1,1,214,77,1890,-37.7776,144.9142
Seddon,195 Pilgrim St,2,casa,,6.6,3011,1,0,126,78,1890,-37.8042,144.8857
Ascot Vale,63 Kent St,2,casa,751000,5.9,3032,1,1,118,79,1890,-37.7807,144.9288
Collingwood,382 Wellington St,2,casa,855000,1.6,3066,1,0,130,80,1890,-37.7953,144.9882
Cremorne,18 Chapel St,2,casa,1015000,2.5,3121,1,1,131,80,1890,-37.8274,144.9967
Kew,73 Cobden St,2,casa,1326000,5.6,3101,1,2,405,80,1890,-37.8012,145.0361
Richmond,45 Westbank Tce,2,casa,1045000,2.6,3121,1,1,138,81,1890,-37.8218,145.0132
Carlton,34 Barkly St,2,casa,1170000,1.8,3053,1,1,144,81,1890,-37.7984,144.9738
North Melbourne,13/201 Abbotsford St,2,apartamento,755000,2.3,3051,1,1,1537,81,1890,-37797,    
Yarraville,41 Sussex St,3,casa,770000,7,3013,1,1,138,82,1890,-37.82,144891
Brunswick,10 Cliff St,1,casa,772000,5.2,3056,1,1,147,82,1890,-37.7643,144.9584
Albert Park,364 Montague St,2,casa,1562500,3.3,3206,1,0,141,83,1890,-37.8424,144.9562
Albert Park,91 Page St,3,casa,2150000,3.3,3206,1,1,163,85,1890,-37.84725,144.95499
Clifton Hill,119 Roseneath St,2,casa,1075000,3.4,3068,1,1,174,85,1890,-37.7928,144.9987
Footscray,3 Park St,4,casa,775000,6.4,3011,1,2,277,87,1890,-37.7901,144.8883
Brunswick,141 Gold St,2,casa,845500,5.2,3056,1,1,179,90,1890,-37.7742,144.9542
Carlton,27 Faraday St,2,casa,1117000,1.8,3053,1,0,128,92,1890,-37.7996,144.9737
Fitzroy North,35 Birkenhead St,2,casa,1290000,3.5,3068,1,0,136,92,1890,-37.7819,144.9824
Elwood,7 Moore St,2,casa,1210000,7.7,3184,1,0,163,92,1890,-37.8778,144.9904
South Yarra,26 Fawkner St,2,casa,1455000,3.3,3141,1,0,225,94,1890,-37.8421,144.9876
Clifton Hill,15 Dally St,2,casa,1250000,3.4,3068,1,0,158,95,1890,-37.79245,144.99949
Armadale,20 Rose St,2,casa,,6.3,3143,1,1,163,95,1890,-37.85098,145.01579
Flemington,11/300 Racecourse Rd,2,kitnet,603000,4.4,3031,1,1,,96,1890,-37.78803,144934
Moonee Ponds,19 Sussex St,2,casa,945000,6.9,3039,1,0,225,97,1890,-37.7639,144.9093
Abbotsford,16 William St,2,casa,1310000,2.5,3067,1,2,238,97,1890,-37809,144.9976
Seddon,14 Pole St,3,casa,970000,6.6,3011,1,0,137,98,1890,-37.8078,144.8972
Flemington,59 Victoria St,2,casa,730000,4.4,3031,1,1,140,98,1890,-37.7867,144.9342
Albert Park,65 Graham St,2,casa,1322500,3.3,3206,1,0,149,98,1890,-37.8443,144.9481
St Kilda,2/25 Acland St,2,apartamento,1077000,6.1,3182,1,1,455,98,1890,-37.86311,
Fitzroy,56 Westgarth St,3,casa,,1.6,3065,1,1,143,99,1890,-37.7967,144.98256
South Melbourne,35 Lyell St,3,casa,,2.1,3205,1,1,156,99,1890,-37.8364,144.9493
Clifton Hill,40 Myrtle St,2,casa,1290000,3.4,3068,1,0,164,99,1890,-37.7912,144.9967
Cremorne,66 Green St,3,casa,1300000,2.5,3121,1,1,326,100,1890,-37.8283,144.9946
Fitzroy,84 Kerr St,2,casa,1122000,1.6,3065,1,0,106,101,1890,-37.7968,144.9781
Coburg,16 Linda St,2,casa,953000,7.8,3058,1,1,170,101,1890,-37.7508,144.9608
Brunswick East,178 Weston St,2,casa,1080000,4.5,3057,1,0,193,101,1890,-37.7765,144.9751
Kensington,26 Hopetoun St,2,casa,1155000,4.2,3031,1,1,197,101,1890,-37.7918,144.9264
Northcote,8 Salisbury Gr,2,casa,,5.5,3070,1,0,210,101,1890,-37.7654,145.0026
Parkville,199 Park Dr,2,casa,1265000,2.6,3052,1,0,70,102,1890,-37.7931,144.9565
Burnley,154 Stawell St,3,casa,1435000,3.5,3121,1,0,182,102,1890,-37.8289,145.0089
Parkville,92 Fitzgibbon St,2,casa,1805000,2.6,3052,1,1,187,102,1890,-37.7939,144.9572
Northcote,6 Dally St,2,casa,1035000,5.5,3070,1,2,243,102,1890,-37.7653,145.0014
Hawthorn,24 College St,3,casa,1551000,4.6,3122,1,1,199,103,1890,-37.8172,145.0243
Richmond,14 Lesney St,2,casa,,2.6,3121,1,0,240,103,1890,-37.8269,144.9987
Brunswick,58 Cassels Rd,3,casa,860000,5.2,3056,1,1,184,104,1890,-37.7563,144.96
Brunswick,4 Frederick St,3,casa,1170000,5.2,3056,1,0,285,104,1890,-37.7634,144.9593
Fitzroy,291 George St,2,casa,1460000,1.6,3065,1,0,,105,1890,-37.8006,144.9814
Fitzroy,431 George St,3,casa,1250000,1.6,3065,1,1,113,105,1890,-37.7966,144.9821
Abbotsford,78 Yarra St,3,casa,1176500,2.5,3067,1,1,138,105,1890,-37.8021,144.9965
Northcote,63 Union St,3,casa,,5.5,3070,1,2,185,105,1890,-37.7788,144.9944
Brunswick,84 Stewart St,3,casa,1045000,5.2,3056,1,2,222,105,1890,-37.7642,144969
Box Hill,19 Kent Rd,3,casa,928000,13.1,3128,1,1,307,106,1890,-37.8247,145.1206
Clifton Hill,31 Fenwick St,2,casa,1450000,3.4,3068,1,0,156,107,1890,-37.7892,144.9999
Abbotsford,98 Charles St,2,casa,1636000,2.5,3067,1,2,256,107,1890,-37806,144.9954
Hawthorn East,14 Carlyle St,2,casa,,7.5,3123,1,0,273,107,1890,-37.8185,145.0578
Hawthorn,14 Malmsbury St,3,casa,1420000,4.6,3122,1,0,218,108,1890,-37.8214,145.0437
Northcote,43 Christmas St,2,casa,1286000,5.5,3070,1,1,245,108,1890,-37.7662,145.0096
Spotswood,13 Robb St,3,casa,831000,7.7,3015,1,0,353,109,1890,-37.8309,144889
Fitzroy North,191 Scotchmer St,3,casa,1300000,3.5,3068,1,1,203,110,1890,-37.7834,144.9862
Richmond,249 Church St,3,casa,,2.6,3121,1,1,216,110,1890,-37.8193,144.9993
Carlton North,636 Canning St,3,casa,,3.2,3054,1,0,252,110,1890,-37.7817,144.9759
Coburg,10 Shackell St,3,casa,784000,7.8,3058,1,1,286,110,1890,-37.7427,144952
Toorak,49 Canterbury Rd,3,casa,,4.6,3142,1,0,197,111,1890,-37.8462,145.0097
St Kilda,25 Fawkner St,2,casa,1440000,6.1,3182,1,2,194,112,1890,-37.85771,144.97742
Port Melbourne,178 Albert St,3,casa,,3.8,3207,1,0,169,116,1890,-37.83227,144.94246
Seddon,56 Hamilton St,3,casa,1145000,6.6,3011,1,1,350,116,1890,-37.8094,144.8869
North Melbourne,5 Carroll St,3,casa,,2.3,3051,1,1,146,117,1890,-37.7959,144.9455
Fitzroy North,102 Falconer St,3,casa,,3.5,3068,1,1,254,117,1890,-37.7838,144.99
Preston,192 Wood St,4,casa,870000,8.8,3072,1,2,400,117,1890,-37.7346,145.0164
Richmond,8 Malleson St,3,casa,1420000,2.6,3121,1,0,198,119,1890,-37.8225,145.0007
Richmond,249 Punt Rd,4,casa,950000,2.6,3121,1,0,254,124,1890,-37.8201,144.9898
Richmond,249 Punt Rd,4,casa,905000,2.6,3121,1,0,254,124,1890,-37.8201,144.9898
Kew,127 Wellington St,3,casa,,5.6,3101,1,1,162,125,1890,-37.8105,145.0429
Seddon,64 Pilgrim St,3,casa,880000,6.6,3011,1,0,216,125,1890,-37.8052,144.8941
Brunswick,5 MacKenzie St,3,casa,1222500,5.2,3056,1,0,331,126,1890,-37.7619,144959
Fitzroy North,569 Rae St,3,casa,,3.5,3068,1,0,185,127,1890,-37.7776,144.9809
Richmond,90 Bendigo St,3,casa,,2.6,3121,1,0,203,127,1890,-37.8264,145.0115
Hawthorn East,81 Roseberry St,3,casa,,7.5,3123,1,1,246,128,1890,-37.8267,145.0503
Preston,287 Tyler St,3,casa,1650000,8.8,3072,1,2,452,129,1890,-37.7307,145.0094
Albert Park,49 Page St,3,casa,2000000,3.3,3206,1,1,238,131,1890,-37.8461,144.9528
Port Melbourne,213 Stokes St,3,casa,1380000,3.8,3207,1,0,,134,1890,-37.8373,144.9397
Flemington,54 Princes St,3,casa,917000,4.4,3031,1,0,143,136,1890,-37.78679,144.93471
Northcote,160 Bent St,4,casa,1420000,5.5,3070,1,1,465,137,1890,-37.7662,144.9889
Carlton,130 Rathdowne St,4,casa,1616000,1.8,3053,1,0,152,139,1890,-37.7966,144.9709
Brunswick,152 Edward St,3,casa,,5.2,3056,1,1,338,143,1890,-37775,144.9701
Camberwell,21 Avenue Rd,3,casa,1905000,7.8,3124,1,2,400,145,1890,-37.8333,145.06157
Clifton Hill,16 Spensley St,4,casa,,3.4,3068,1,2,206,146,1890,-37.7884,144997
Seddon,18 William St,4,casa,1270000,6.6,3011,1,1,352,150,1890,-37.8059,144.8899
Fitzroy,31 Bell St,4,casa,1950000,1.6,3065,1,0,177,152,1890,-37.7999,144.9759
Elsternwick,275 Kooyong Rd,3,casa,1605000,8.5,3185,1,1,418,152,1890,-37.8831,145.0153
Northcote,39 Barry St,3,casa,1710000,5.5,3070,1,1,247,160,1890,-37.7798,144.9952
Brunswick,64 Hanover St,3,casa,1250000,5.2,3056,1,1,483,162,1890,-37.7602,144.9543
Port Melbourne,130 Nott St,3,casa,985000,3.8,3207,1,0,171,167,1890,-37.8385,144.9409
Port Melbourne,146 Dow St,5,casa,2350000,3.8,3207,1,2,350,173,1890,-37.8407,144.9424
Coburg,243 Moreland Rd,3,casa,1370000,7.8,3058,1,1,233,180,1890,-37.7549,144.9611
South Yarra,115 Osborne St,3,casa,,3.3,3141,1,2,317,180,1890,-37.8406,144.9912
Canterbury,16 Church St,4,casa,,9,3126,1,1,665,183,1890,-37.82717,145.08482
Ascot Vale,12 Mirams St,4,casa,890000,5.9,3032,1,1,300,185,1890,-37.7766,144.9143
Parkville,110 Gatehouse St,4,casa,1928000,2.6,3052,1,0,194,186,1890,-37.7944,144.9542
Brunswick East,94 Barkly St,4,casa,1815000,4.5,3057,1,1,233,204,1890,-37.7776,144.9727
Kingsville,309 Geelong Rd,2,casa,685000,7.8,3012,1,1,220,219,1890,-37.8068,144.8782
Canterbury,5 Margaret St,4,casa,2620000,9,3126,1,1,717,235,1890,-37.8266,145.0849
Footscray,75 MacPherson St,2,casa,885000,6.4,3011,1,0,267,99.5,1890,-37.79611,
Prahran,49 Clifton St,2,casa,765000,4.5,3181,1,0,98,,1890,-37.8501,144.9953
Fitzroy,46 Gore St,4,casa,,1.6,3065,1,1,196,,1890,-37.8072,144.9819
Carlton North,696 Rathdowne St,3,casa,,3.2,3054,1,0,217,,1890,-37.7809,144.9735
Hawthorn,23 William St,3,casa,1377000,4.6,3122,1,2,314,,1890,-37.8202,145.0404
Surrey Hills,16 Pembroke St,4,casa,1650000,11.2,3127,1,0,437,,1890,-37.8285,145.1079
Brunswick,17 Goodman St,2,casa,916000,5.2,3056,1,0,1328,,1890,-37773,144.9568
South Melbourne,48 Glover St,2,casa,1200000,2.1,3205,2,1,131,79,1890,-37839,144948
Caulfield South,30 Cedar St,2,casa,1001000,9.3,3162,2,1,255,85,1890,-37.8887,145.0207
South Melbourne,157 Napier St,3,casa,1600000,2.1,3205,2,1,88,93,1890,-37.8363,144.9628
Fitzroy,4 Garfield St,2,casa,,1.6,3065,2,0,89,93,1890,-37.8007,144975
Fitzroy,315 Young St,3,casa,,1.6,3065,2,0,93,93,1890,-37.7964,144.9798
Kew,19 May St,2,casa,,5.6,3101,2,0,221,101,1890,-37.8121,145.0437
Prahran,75 Chatsworth Rd,4,casa,,4.5,3181,2,2,336,104,1890,-37.8498,145.0068
Port Melbourne,467 Bay St,2,casa,1000000,3.8,3207,2,0,96,108,1890,-37.8327,144.9474
Fitzroy North,111 Best St,3,casa,1275000,3.5,3068,2,1,104,110,1890,-37.7813,144.9834
South Melbourne,247 York St,3,casa,1250000,2.1,3205,2,0,224,113,1890,-37.8329,144.9529
Hawthorn East,61 Roseberry St,3,casa,1625000,7.5,3123,2,1,255,115,1890,-37.8266,145.0493
Richmond,41 Cameron St,3,casa,1320000,2.6,3121,2,2,171,118,1890,-37.8166,144.9987
Parkville,55 Park Dr,3,casa,2790000,2.6,3052,2,1,180,120,1890,-37.79588,144.95718
South Melbourne,24 Lyell St,3,casa,1250000,2.1,3205,2,1,108,125,1890,-37.8363,144.9509
Prahran,3 Arkle St,3,casa,1811000,4.5,3181,2,1,273,125,1890,-37.8544,145.0038
Newport,115 North Rd,3,casa,1046000,8.4,3015,2,2,284,125,1890,-37.8446,144.8861
Hawthorn,37 Brook St,3,casa,1400000,4.6,3122,2,1,164,126,1890,-37.8159,145.0219
South Melbourne,72 Smith St,3,casa,1595000,2.1,3205,2,0,171,126,1890,-37.8391,144.9501
Brunswick,69 Glenlyon Rd,3,casa,1210000,5.2,3056,2,1,280,130,1890,-37.7719,144.9661
Williamstown,8 Freyer St,4,casa,,8,3016,2,1,340,130,1890,-37.8552,144.89
Port Melbourne,32 Derham St,3,casa,,3.8,3207,2,1,203,131,1890,-37.83899,144.94629
Ascot Vale,72 Kent St,3,casa,,5.9,3032,2,2,298,132,1890,-37.78,144.9247
Albert Park,94 Graham St,3,casa,1850000,3.3,3206,2,0,128,133,1890,-37.8452,144.9488
Albert Park,17 Reed St,3,casa,1740000,3.3,3206,2,2,147,134,1890,-37.8448,144.9453
Fitzroy North,717 Brunswick St,3,casa,1300000,3.5,3068,2,0,127,135,1890,-37.7851,144.9809
Clifton Hill,11 Page St,3,casa,1370000,3.4,3068,2,1,176,135,1890,-37.7921,144.9898
South Yarra,3 Palermo St,3,casa,2285000,3.3,3141,2,2,221,135,1890,-37.8416,144.9959
Brighton East,31 Agnew St,3,casa,,10.7,3187,2,1,371,140,1890,-37.9102,145.0109
South Melbourne,16 Tribe St,3,casa,2000000,2.1,3205,2,1,161,141,1890,-37.8383,144.9499
Albert Park,9 Boyd St,3,casa,,3.3,3206,2,1,336,145,1890,-37.8471,144.9561
Fairfield,197 Station St,4,casa,1160000,5.8,3078,2,1,381,145,1890,-37.7735,145.0192
Brunswick East,9 John St,4,casa,1625000,4.5,3057,2,2,822,145,1890,-37.7749,144.9762
Albert Park,97 Page St,3,casa,3010000,3.3,3206,2,0,147,146,1890,-37.8473,144.9551
Middle Park,23 Nimmo St,3,casa,2250000,4.1,3206,2,1,148,146,1890,-37.84705,144.96437
Port Melbourne,190 Nott St,3,casa,,3.8,3207,2,1,151,146,1890,-37836,144.9431
South Melbourne,44 Iffla St,3,casa,,2.1,3205,2,0,142,147,1890,-37.8378,144.9497
South Yarra,62 Powell St,3,casa,1945000,3.3,3141,2,1,194,148,1890,-37.8395,144.9898
North Melbourne,6 Shiel St,3,casa,1385000,2.3,3051,2,0,118,150,1890,-37.7976,144944
Brunswick,316 Brunswick Rd,3,casa,,5.2,3056,2,1,200,151,1890,-37.7763,144.9526
Fitzroy North,26 Grant St,3,casa,,3.5,3068,2,1,351,152,1890,-37.7892,144.9849
South Melbourne,396 Dorcas St,4,casa,1620000,2.1,3205,2,0,163,153,1890,-37.8355,144951
Prahran,93 Charles St,3,casa,2180000,4.5,3181,2,2,238,153,1890,-37.8476,144.9892
Princes Hill,77 McIlwraith St,4,casa,1908000,3.7,3054,2,1,256,156,1890,-37.7833,144.9681
Footscray,37 Stirling St,3,casa,1362000,6.4,3011,2,0,497,156,1890,-37.7958,144.9024
Balaclava,10 Grosvenor St,3,casa,1690000,6.6,3183,2,2,339,159,1890,-37872,144.9909
Moonee Ponds,61 Athol St,3,casa,1400000,6.9,3039,2,2,394,160,1890,-37.7699,144.9149
Hawthorn East,11 Council St,3,casa,1320000,7.5,3123,2,1,213,162,1890,-37.8302,145.0542
South Melbourne,164 Cecil St,3,casa,2075000,2.1,3205,2,0,141,163,1890,-37.8333,144.9576
Yarraville,8 Ofarrell St,3,casa,,7,3013,2,1,235,166,1890,-37.81,144889
Elsternwick,10 Seymour Rd,3,casa,,8.5,3185,2,1,479,167,1890,-37.8806,145008
Carlton North,1018 Drummond St,4,casa,2520000,3.2,3054,2,2,504,168,1890,-37.7805,144.9721
Hawthorn,59 Mason St,3,casa,2410000,4.6,3122,2,0,249,171,1890,-37.8169,145021
Fitzroy,302 Gore St,4,casa,,1.6,3065,2,2,261,172,1890,-37.8,144.9831
Yarraville,47 Bayview Rd,5,casa,1815000,7,3013,2,2,644,172,1890,-37.8102,144.8857
Hawthorn,23 Edgerton St,4,casa,1936000,4.6,3122,2,1,218,173,1890,-37.8142,145.0252
Fitzroy North,79 Delbridge St,4,casa,3400000,3.5,3068,2,1,445,175,1890,-37786,144.9864
Yarraville,122 Blackwood St,4,casa,1606000,7,3013,2,3,455,178,1890,-37.8177,144.8839
Malvern,35 Dixon St,3,casa,2050000,7.4,3144,2,1,231,180,1890,-37.8607,145.0373
Armadale,15 Sutherland Rd,3,casa,,6.3,3143,2,2,459,180,1890,-37.8595,145.0166
Elsternwick,36 Murray St,3,casa,,8.5,3185,2,3,674,181,1890,-37.8848,145013
Prahran,16 Greville St,4,casa,,4.5,3181,2,1,348,183,1890,-37.8487,144.9862
Malvern East,37 Emo Rd,3,casa,,11.2,3145,2,2,711,184,1890,-37.8759,145.0518
Malvern,20 Gordon Gr,4,casa,1965000,7.4,3144,2,1,300,185,1890,-37.8638,145.0298
Northcote,13 Hawthorn Rd,4,casa,2175000,5.5,3070,2,1,573,186,1890,-37.7707,144.9924
Port Melbourne,133 Station St,3,casa,,3.8,3207,2,0,185,187,1890,-37.84066,144.93899
Camberwell,28 Brinsley Rd,4,casa,2650000,7.8,3124,2,1,652,189,1890,-37.8286,145.0686
Surrey Hills,3 Wilson St,4,casa,,11.2,3127,2,2,506,192,1890,-37.8219,145.1004
Carlton,176 Cardigan St,4,casa,1630100,1.8,3053,2,0,132,195,1890,-37801,144.9656
South Melbourne,248 Montague St,3,casa,1650000,2.1,3205,2,0,204,195,1890,-37.8357,144.9531
Caulfield North,5 Kambrook Rd,3,casa,,8.1,3161,2,1,241,195,1890,-37.87283,145.03597
Malvern,67 Wheatland Rd,4,casa,2400000,7.4,3144,2,2,586,195,1890,-37866,145039
Box Hill,55 Albion Rd,4,casa,1600000,13.1,3128,2,1,692,195,1890,-37.8247,145.1281
Parkville,187 Park Dr,3,casa,2236000,2.6,3052,2,1,154,196,1890,-37.7934,144.9562
Albert Park,112 Beaconsfield Pde,3,casa,2850000,3.3,3206,2,0,211,198,1890,-37.8481,144.9499
Hawthorn East,41 Clive Rd,3,casa,,7.5,3123,2,1,544,199,1890,-37.8334,145.05
Yarraville,54 Tongue St,4,casa,2035000,7,3013,2,0,607,201,1890,-37.80978,144.89252
St Kilda,12 Gurner St,4,casa,1900000,6.1,3182,2,2,507,202,1890,-37.8616,144.9807
Armadale,47 Northcote Rd,3,casa,,6.3,3143,2,0,246,204,1890,-37.8533,145.0169
Glen Iris,47 Alfred Rd,4,casa,,9.2,3146,2,2,744,204,1890,-37.85381,145.07513
Armadale,54 Denbigh Rd,4,casa,,6.3,3143,2,2,551,208,1890,-37.8566,145.0161
Fitzroy North,74 Barkly St,4,casa,1950000,3.5,3068,2,2,233,216,1890,-37.7786,144.9818
Hawthorn,10 Oak St,4,casa,3225000,4.6,3122,2,2,665,220,1890,-37814,145.0175
Newport,74 Alma Tce,4,casa,2337000,8.4,3015,2,3,580,222,1890,-37.83699,144.8698
Kew,176 Cotham Rd,4,casa,2625000,5.6,3101,2,2,717,225,1890,-37.8083,145.0418
Hawthorn,5 Power St,5,casa,,4.6,3122,2,2,813,230,1890,-37.8142,145028
Hawthorn,8 Fashoda St,3,casa,,4.6,3122,2,1,340,234,1890,-37818,145.0251
Hawthorn,31 Grove Rd,4,casa,,4.6,3122,2,2,613,234,1890,-37.8146,145.0248
Toorak,292 Williams Rd,4,casa,,4.6,3142,2,2,322,237,1890,-37.8384,145.0053
Kew,68 Mary St,5,casa,2425000,5.6,3101,2,2,534,237,1890,-37.8044,145.0386
Camberwell,84 Bowen St,4,casa,,7.8,3124,2,2,730,244,1890,-37.8449,145.0621
Kew,80 Brougham St,4,casa,2850000,5.6,3101,2,4,690,248,1890,-37.8037,145.0308
Camberwell,6 Kingsley St,4,casa,3550000,7.8,3124,2,1,790,251,1890,-37.82694,145.06607
Essendon,242 Buckley St,3,casa,1100000,8,3040,2,1,789,257,1890,-37.7558,144.9073
Brunswick,222 Barkly St,5,casa,2500000,5.2,3056,2,2,555,266,1890,-37.7767,144.9645
Essendon,57 Hoddle St,4,casa,,8,3040,2,4,,270,1890,-37.7519,144.9233
Kensington,11 Nottingham St,5,casa,1710000,4.2,3031,2,2,566,270,1890,-37.7893,144933
Kensington,11 Nottingham St,5,casa,1900000,4.2,3031,2,2,566,270,1890,-37.7893,144933
Hawthorn,151 Power St,4,casa,1976000,4.6,3122,2,2,410,275,1890,-37.8246,145026
Hawthorn,4 Ardene Ct,5,casa,3950000,4.6,3122,2,3,1236,340,1890,-37.8257,145.0321
Kew,24 Fitzwilliam St,5,casa,1975000,5.6,3101,2,1,531,1022,1890,-37813,145.0411
South Yarra,50 Nicholson St,3,casa,,3.3,3141,2,1,278,162.52,1890,-37.83704,144.98688
Hawthorn,43 Connell St,4,casa,,4.6,3122,2,1,371,,1890,-37.8184,145025
Surrey Hills,8 Charles St,4,casa,1530000,11.2,3127,2,2,486,,1890,-37.8258,145.1116
Hawthorn,392 Auburn Rd,4,casa,,4.6,3122,2,2,688,,1890,-37.8345,145.0426
Windsor,77 Raleigh St,3,casa,1910000,5.1,3181,3,1,143,89,1890,-37.8525,144.9881
Carlton North,112 Newry St,4,casa,1425000,3.2,3054,3,0,122,130,1890,-37.7893,144.9696
Canterbury,42 Warburton Rd,3,casa,2200000,9,3126,3,2,468,148,1890,-37.8264,145.0741
South Yarra,70 Park St,3,casa,3000000,3.3,3141,3,2,191,175,1890,-37836,144.9824
Williamstown,19 Verdon St,4,casa,2910000,8,3016,3,0,338,196,1890,-37.8633,144.8963
Malvern East,16 Turner St,4,casa,,11.2,3145,3,2,597,202,1890,-37.8742,145.0453
Ascot Vale,7 Angler Pde,4,casa,1640000,5.9,3032,3,2,562,204,1890,-37782,144903
Brunswick,25 Hardy St,4,casa,1500000,5.2,3056,3,1,365,209,1890,-37.7624,144.9671
Williamstown,14 Osborne St,4,casa,,8,3016,3,0,502,210,1890,-37.8684,144.9042
Elwood,2 Dryden St,4,casa,,7.7,3184,3,1,475,213,1890,-37.8745,144.9849
Seddon,93 Williamstown Rd,5,casa,1275000,6.6,3011,3,1,386,218,1890,-37.8078,144.8846
Richmond,78 Davison St,5,casa,3200000,2.6,3121,3,3,618,260,1890,-37.8157,145.0073
Prahran,30 Charles St,5,casa,,4.5,3181,3,2,450,267,1890,-37.85,144.9892
Camberwell,25 Russell St,4,casa,3225000,7.8,3124,3,1,632,270,1890,-37.8244,145064
Fitzroy,17 Bell St,4,casa,4011000,1.6,3065,3,2,286,275,1890,-37.7999,144.9755
Brighton,82 New St,5,casa,3700000,11.2,3186,3,4,1572,305,1890,-37.9233,144.9944
Kew,49 Princess St,4,casa,2250000,5.6,3101,3,2,741,307,1890,-37.8043,145.0291
Malvern,18 Soudan St,5,casa,4240000,7.4,3144,3,3,580,320,1890,-37.8653,145.0304
Essendon,29 Brewster St,4,casa,,8,3040,3,3,1536,344,1890,-37.7514,144.9218
Hawthorn,144 Power St,6,casa,,4.6,3122,3,4,859,362,1890,-37.8234,145.0259
Kew,15 Barry St,6,casa,6500000,5.6,3101,6,3,1334,365,1890,-37.8029,145.0267
Kew,72 Peel St,5,casa,,5.6,3101,2,2,749,283,1892,-37.8007,145.0339
Armadale,10 Eileen St,3,casa,,6.3,3143,1,2,250,,1893,-37.85144,145.01549
Richmond,131 Lord St,4,casa,3335000,2.6,3121,2,2,319,,1893,-37.8244,145.0044
South Yarra,366 Toorak Rd,3,casa,1700000,3.3,3141,1,1,178,172,1894,-37.8404,145.0022
Windsor,344 High St,3,casa,2302000,5.1,3181,1,4,440,144,1895,-37.8528,144.9994
South Yarra,10 Fawkner St,4,casa,,3.3,3141,2,2,338,182,1895,-37.84516,144.98834
Elsternwick,46 Hartington St,4,casa,,8.5,3185,2,1,478,211,1895,-37.8916,145.0124
Collingwood,31/78 Oxford St,2,kitnet,1215000,1.6,3066,2,1,,,1895,-37.8035,144985
Hughesdale,9A Normanby St,2,casa,980000,13,3166,1,1,387,,1896,-37.90207,145.07852
Camberwell,18 Russell St,4,casa,2600000,7.8,3124,2,2,600,232,1897,-37.8237,145.0638
Fitzroy North,205 Scotchmer St,3,casa,2150000,3.5,3068,2,0,202,307,1898,-37.7835,144.9867
Hawthorn,5 Riversdale Rd,4,casa,,4.6,3122,2,2,1124,,1898,-37.8276,145026
South Melbourne,5 Park Pl,2,kitnet,650000,2.1,3205,1,0,438,2,1900,-37.83394,144.95814
Newport,10 Crawford St,1,casa,643700,8.4,3015,1,0,129,45,1900,-37.8491,144.8903
Melbourne,19/562 Little Bourke St,1,kitnet,,2.8,3000,1,1,,53,1900,-37.8152,144.9557
Prahran,513/220 Commercial Rd,1,kitnet,,4.5,3181,1,0,4655,53,1900,-37847,144.9936
Albert Park,9 Durham St,1,casa,985000,3.3,3206,1,0,81,54,1900,-37.8411,144.9497
West Melbourne,209/5 Stawell St,1,kitnet,443000,1.9,3003,1,1,547,58,1900,-37806,144942
Richmond,6 Berry St,2,casa,900000,2.6,3121,1,0,95,63,1900,-37.8193,144.9976
Albert Park,7 Herbert Pl,2,casa,,3.3,3206,1,0,99,65,1900,-37.8438,144.9588
St Kilda,27 Bath St,2,casa,875000,6.1,3182,1,1,123,68,1900,-37.8641,144.9866
Cremorne,14 Dover St,2,casa,930000,2.5,3121,1,1,125,68,1900,-37.8258,144992
Port Melbourne,39 Heath St,2,casa,900000,3.8,3207,1,0,124,70,1900,-37.8356,144.9439
Collingwood,130 Keele St,2,casa,890000,1.6,3066,1,1,178,70,1900,-37.7974,144.9915
Hawthorn East,45 Roseberry St,2,casa,1335000,7.5,3123,1,0,229,70,1900,-37.8265,145.0484
Ascot Vale,1/91 Epsom Rd,2,kitnet,545000,5.9,3032,1,2,194,71,1900,-37.7772,144.9118
Richmond,50 Canterbury St,2,casa,827500,2.6,3121,1,0,127,72,1900,-37.8251,145.0063
Prahran,76 Pridham St,2,casa,1182500,4.5,3181,1,0,141,72,1900,-37852,145.0061
Kensington,70 Hardiman St,2,casa,960000,4.2,3031,1,1,174,72,1900,-37.7959,144.9343
Richmond,52 Coppin St,2,casa,,2.6,3121,1,1,153,73,1900,-37.8195,145.0035
Fitzroy,101/416 Gore St,2,kitnet,715000,1.6,3065,1,1,,74,1900,-37.7967,144.9836
Richmond,24 The Crofts,2,casa,1125000,2.6,3121,1,0,103,74,1900,-37.8199,144.9911
Thornbury,84 Raleigh St,2,casa,760000,6.5,3071,1,0,,75,1900,-37.7595,145.0061
Richmond,22 Garfield St,2,casa,990000,2.6,3121,1,1,117,75,1900,-37812,144.9939
Abbotsford,10 Valiant St,2,casa,1097000,2.5,3067,1,2,220,75,1900,-37801,144.9989
South Melbourne,22A Cobden St,2,casa,930000,2.1,3205,1,0,115,76,1900,-37.8345,144.9685
Port Melbourne,205 Heath St,2,casa,1115000,3.8,3207,1,0,120,76,1900,-37.8322,144947
Richmond,143 Burnley St,2,casa,777500,2.6,3121,1,1,151,76,1900,-37.8171,145009
Ascot Vale,73 Kent St,2,casa,760000,5.9,3032,1,1,124,77,1900,-37.7807,144.9285
Richmond,2 Moore St,1,casa,911000,2.6,3121,1,0,126,77,1900,-37.82105,145.00643
South Yarra,39 Hardy St,2,casa,1130000,3.3,3141,1,1,132,77,1900,-37.8446,144.9896
Burnley,148 Stawell St,2,casa,1202500,3.5,3121,1,1,149,77,1900,-37.8287,145.0089
Flemington,107 Shields St,2,casa,918000,4.4,3031,1,0,136,78,1900,-37.7839,144.9343
Thornbury,4 Kelvin Gr,2,casa,944000,6.5,3071,1,1,185,78,1900,-37763,145.0025
Prahran,84 York St,2,casa,1305000,4.5,3181,1,1,131,79,1900,-37.8479,144.9988
Abbotsford,25 Bloomburg St,2,casa,1035000,2.5,3067,1,0,156,79,1900,-37.8079,144.9934
Footscray,101 MacPherson St,2,casa,,6.4,3011,1,2,200,79,1900,-37.7971,144.8898
Middle Park,158 Neville St,2,casa,1300000,4.1,3206,1,0,132,80,1900,-37.84684,144.9604
Richmond,52 Hunter St,2,casa,1150000,2.6,3121,1,0,156,80,1900,-37.8209,145.0052
Footscray,27 MacPherson St,2,casa,882000,6.4,3011,1,0,172,80,1900,-37.7936,144.88878
Yarraville,33 Berry St,2,casa,,7,3013,1,0,200,80,1900,-37.8117,144.8957
Carlton,83 Cardigan St,2,casa,840000,1.8,3053,1,0,66,81,1900,-37.8049,144.9644
Albert Park,396 Montague St,2,casa,1436000,3.3,3206,1,0,130,81,1900,-37.8431,144.9565
Seddon,80 Gamon St,2,casa,815000,6.6,3011,1,0,172,81,1900,-37.81,144.8896
Richmond,81 Erin St,3,casa,1260000,2.6,3121,1,0,203,81,1900,-37.8166,144.9945
Hawthorn East,19 Roseberry St,2,casa,,7.5,3123,1,1,218,81,1900,-37.82638,
Maidstone,67 Norfolk St,3,casa,840000,9.2,3012,1,1,584,81,1900,-37.7885,144.8771
Albert Park,105 Kerferd Rd,2,casa,1275000,3.3,3206,1,0,120,82,1900,-37.8459,144.9555
South Yarra,14 Moore St,2,casa,1214000,3.3,3141,1,0,161,82,1900,-37.84228,144.98676
Abbotsford,200 Nicholson St,2,casa,1012500,2.5,3067,1,0,182,82,1900,-37.8021,144.9976
Abbotsford,49 Park St,2,casa,1315000,2.5,3067,1,0,147,85,1900,-37808,144994
Prahran,19 Packington Pl,2,casa,1055000,4.5,3181,1,0,203,85,1900,-37.8557,145.0053
Moonee Ponds,20 Huntly St,2,casa,970000,6.9,3039,1,2,272,85,1900,-37.76192,144.93527
Coburg,18 Industry La,2,apartamento,570000,7.8,3058,1,1,,86,1900,-37.7367,144.9701
South Yarra,33 Tyrone St,2,casa,1200000,3.3,3141,1,1,163,86,1900,-37.8446,144.9879
Ascot Vale,51 Francis St,2,casa,770000,5.9,3032,1,1,226,87,1900,-37.7774,144.9186
Richmond,308 Lennox St,2,casa,1220000,2.6,3121,1,1,166,88,1900,-37.8245,144.9933
Newport,65 Alma Tce,2,casa,890000,8.4,3015,1,0,168,90,1900,-37.8475,144.8897
Kensington,123 Rankins Rd,2,casa,850000,4.2,3031,1,1,169,90,1900,-37.7925,144.9315
Richmond,58 Rooney St,2,casa,1045000,2.6,3121,1,2,200,90,1900,-37.8294,145.0029
Hawthorn,44 College St,3,casa,1300000,4.6,3122,1,0,232,90,1900,-37.8173,145.0252
Collingwood,8/115 Oxford St,2,kitnet,800000,1.6,3066,1,1,,91,1900,-37.8026,144.9848
Abbotsford,47 Studley St,2,casa,1180000,2.5,3067,1,0,162,91,1900,-37.8016,144.9956
Richmond,127 Lord St,2,casa,,2.6,3121,1,1,189,91,1900,-37.8242,145.0045
Collingwood,10/76 Oxford St,2,kitnet,683000,1.6,3066,1,1,,92,1900,-37.8035,144985
Richmond,32 Duke St,2,casa,1025000,2.6,3121,1,1,169,92,1900,-37.8235,145.0035
Richmond,13 McKay St,3,casa,1150000,2.6,3121,1,0,176,92,1900,-37.8116,145.0042
Hawthorn,4A Simpson Pl,3,casa,1180000,4.6,3122,1,3,218,92,1900,-37.8176,145.0204
Port Melbourne,129 Pickles St,2,casa,,3.8,3207,1,1,151,93,1900,-37.8396,144.9469
Footscray,25 Southampton St,3,casa,840000,6.4,3011,1,0,164,93,1900,-37.7959,144.8863
Yarraville,25 Gray St,4,casa,706000,7,3013,1,0,165,93,1900,-37819,144895
Brunswick,246 Victoria St,2,casa,890000,5.2,3056,1,1,199,93,1900,-37.7676,144.9659
Coburg,6 Shackell St,2,casa,735000,7.8,3058,1,1,280,93,1900,-37.7429,144952
Burnley,92 Madden Gr,2,casa,881000,3.5,3121,1,1,172,94,1900,-37.8283,145012
Port Melbourne,44 Cruikshank St,2,casa,1350000,3.8,3207,1,1,195,94,1900,-37.8395,144.9462
Richmond,30 Cameron St,3,casa,1474000,2.6,3121,1,0,238,94,1900,-37.8167,144.9977
Footscray,7 Essex St,2,casa,747000,6.4,3011,1,1,320,94,1900,-37.7964,144.8871
Fitzroy,36 Alexandra Pde,2,casa,,1.6,3065,1,1,129,95,1900,-37.7934,144.9772
Richmond,3 Kimber St,3,casa,1330000,2.6,3121,1,1,154,95,1900,-37.82324,
North Melbourne,28 Alfred St,3,casa,,2.3,3051,1,0,176,95,1900,-37.7906,144.9408
Maidstone,67 Ballarat Rd,2,casa,646000,9.2,3012,1,2,270,95,1900,-37.7871,144.8791
Newport,14 Oakbank St,2,casa,896000,8.4,3015,1,0,297,95,1900,-37.8501,144.8931
Clifton Hill,17 Myrtle St,2,casa,1435000,3.4,3068,1,2,239,96,1900,-37.7918,144997
Caulfield North,21 Malvern Gr,2,casa,,8.1,3161,1,0,249,97,1900,-37.86909,145.02959
Clifton Hill,13 Caroline St,3,casa,1060000,3.4,3068,1,0,193,98,1900,-37.7899,144.9984
Brunswick West,12 Hamilton St,2,casa,820000,5.9,3055,1,1,206,98,1900,-37.7604,144.9488
Footscray,224 Ballarat Rd,2,casa,690500,6.4,3011,1,1,212,98,1900,-37.7903,144.8879
Footscray,9 Lynch St,3,casa,1003000,6.4,3011,1,1,292,98,1900,-37797,144.9051
Kensington,94 McConnell St,2,casa,1031000,4.2,3031,1,1,163,99,1900,-37.7929,144.9287
Collingwood,71 Palmer St,2,casa,888000,1.6,3066,1,0,112,100,1900,-37.80012,144.99007
Northcote,52 Charles St,2,casa,1211000,5.5,3070,1,1,178,100,1900,-37777,144.9922
Richmond,5 Union St,3,casa,1520000,2.6,3121,1,2,248,100,1900,-37.8185,144.9935
Malvern,7 Hunter St,2,casa,1326000,7.4,3144,1,0,254,100,1900,-37.8674,145.0355
Windsor,31 Raleigh St,2,casa,1350000,5.1,3181,1,1,157,101,1900,-37.8522,144986
Footscray,47 Shepherd St,3,casa,871000,6.4,3011,1,1,267,101,1900,-37.79507,144.8936
Yarraville,37 Buninyong St,3,casa,,7,3013,1,0,349,101,1900,-37.8198,144.8882
Ascot Vale,4 The Parade,2,casa,950000,5.9,3032,1,1,173,102,1900,-37.7731,144.9206
Richmond,19 Dickens St,3,casa,1270000,2.6,3121,1,1,181,102,1900,-37.8203,145.0092
Brunswick,56 Rose St,2,casa,,5.2,3056,1,1,203,102,1900,-37.7566,144.9526
Footscray,53 Ryan St,2,casa,1170000,6.4,3011,1,1,184,103,1900,-37.7988,144902
Fitzroy North,34 Fergie St,3,casa,,3.5,3068,1,3,382,103,1900,-37.7845,144.9847
South Melbourne,25 Mountain St,3,casa,1270000,2.1,3205,1,0,149,104,1900,-37.8374,144.9495
Kensington,67 Collett St,3,casa,1010000,4.2,3031,1,0,234,104,1900,-37.7923,144.9332
Richmond,247 Church St,3,casa,1010000,2.6,3121,1,1,199,105,1900,-37.8193,144.9993
Richmond,113 Buckingham St,3,casa,,2.6,3121,1,2,403,105,1900,-37814,145.0054
Port Melbourne,180 Station St,3,casa,1402000,3.8,3207,1,0,108,106,1900,-37.8332,144945
Richmond,118 Somerset St,3,casa,1214000,2.6,3121,1,0,176,106,1900,-37817,145.00544
Armadale,14 New St,3,casa,1300000,6.3,3143,1,2,212,106,1900,-37.8542,145.0149
Hawthorn,31 Smart St,2,casa,1800000,4.6,3122,1,0,221,106,1900,-37.81633,145.04053
Collingwood,6 Forest St,2,casa,981000,1.6,3066,1,0,188,107,1900,-37.7964,144.9923
Albert Park,29 Faussett St,2,casa,2120000,3.3,3206,1,1,199,107,1900,-37.8422,144.9554
Moonee Ponds,82 Argyle St,3,casa,990000,6.9,3039,1,2,328,107,1900,-37.7658,144.9077
Northcote,119 Bent St,2,casa,,5.5,3070,1,1,186,108,1900,-37.7667,144991
Footscray,69 MacPherson St,2,casa,757500,6.4,3011,1,0,258,108,1900,-37.7959,144.8901
Armadale,63 Denbigh Rd,3,casa,1900000,6.3,3143,1,2,328,108,1900,-37.8559,145.0158
Flemington,2 Dalgleish St,3,casa,,4.4,3031,1,1,172,109,1900,-37.7817,144928
Ascot Vale,10 Fenton St,2,casa,1053000,5.9,3032,1,1,269,109,1900,-37.7748,144929
Fitzroy,28 Greeves St,2,casa,1350000,1.6,3065,1,0,131,110,1900,-37.7967,
Fitzroy,107 Cecil St,2,casa,1300000,1.6,3065,1,1,157,110,1900,-37.7941,144.98
Richmond,8 George St,2,casa,1189000,2.6,3121,1,0,158,110,1900,-37.8232,145.0002
Fitzroy,158 Cecil St,3,casa,,1.6,3065,1,1,267,110,1900,-37.80046,144.98363
Seddon,22 Alfred St,3,casa,1080000,6.6,3011,1,0,234,111,1900,-37.8051,144.8858
Ascot Vale,47 Union Rd,3,casa,,5.9,3032,1,2,271,111,1900,-37.7783,144.9149
Brunswick,217 Victoria St,3,casa,1210000,5.2,3056,1,0,282,112,1900,-37.76735,144.96598
Windsor,115 Albert St,3,casa,1370000,5.1,3181,1,2,317,112,1900,-37856,144.9891
Newport,7 Effingham Rd,3,casa,1305000,8.4,3015,1,0,357,112,1900,-37.8459,144.8877
Fitzroy,68 Alexandra Pde,3,casa,,1.6,3065,1,1,135,113,1900,-37.7935,144978
Prahran,60 Williams Rd,3,casa,,4.5,3181,1,1,195,113,1900,-37.8549,145.0023
Kew,15 Scott St,3,casa,,5.6,3101,1,1,260,113,1900,-37.8121,145.0419
Kensington,72 Bayswater Rd,3,casa,1271000,4.2,3031,1,1,284,113,1900,-37.7938,144.9228
Prahran,203/11 Hillingdon Pl,3,kitnet,710000,4.5,3181,1,1,,114,1900,-37.8516,144.9943
Ascot Vale,57 Bloomfield Rd,3,casa,,5.9,3032,1,1,206,115,1900,-37.7765,144.9177
Richmond,32 Cameron St,3,casa,1555000,2.6,3121,1,0,250,115,1900,-37.8167,144.9978
Spotswood,14 Robb St,3,casa,1100000,7.7,3015,1,0,305,115,1900,-37.8288,144.96669
Hawthorn East,20 Stewart St,3,casa,1650000,7.5,3123,1,1,354,115,1900,-37.8225,145.0551
Fitzroy,218 Kerr St,2,kitnet,,1.6,3065,1,1,,116,1900,-37798,144.9837
Albert Park,140 Danks St,2,casa,,3.3,3206,1,2,366,117,1900,-37847,144.9506
Richmond,36 Elm Gr,3,casa,1695000,2.6,3121,1,3,210,118,1900,-37.8247,145.0001
Newport,73 Farm St,3,casa,923000,8.4,3015,1,0,221,118,1900,-37.8415,144.8852
Seddon,302 Nicholson St,3,casa,,6.6,3011,1,0,241,119,1900,-37.8101,144.8977
Elsternwick,12 Rusden St,3,casa,965000,8.5,3185,1,2,275,119,1900,-37.8859,144.9994
South Melbourne,38 Tribe St,3,casa,2633000,2.1,3205,1,0,276,119,1900,-37838,144.9489
Yarraville,30 Simpson St,3,casa,1460000,7,3013,1,2,463,119,1900,-37.8172,144.8924
Kensington,39 Henry St,3,casa,1455000,4.2,3031,1,0,275,120,1900,-37.7954,144.9274
Williamstown,8 Princes St,3,casa,1150000,8,3016,1,0,308,120,1900,-37.85363,144.88842
Brunswick East,156 Glenlyon Rd,3,casa,1050000,4.5,3057,1,1,279,122,1900,-37.7729,144.9722
Albert Park,55 Merton St,3,casa,2100000,3.3,3206,1,1,120,123,1900,-37.8427,144.9546
Prahran,80 Chatsworth Rd,3,casa,,4.5,3181,1,1,215,125,1900,-37.8499,145.0072
Middle Park,141 Richardson St,3,casa,1910000,4.1,3206,1,3,217,125,1900,-37.8474,144.9582
Hawthorn,5 Wattle Gr,3,casa,1855000,4.6,3122,1,1,304,125,1900,-37.8253,145.0287
Brunswick,19 Horne St,3,casa,1550000,5.2,3056,1,1,346,126,1900,-37.7738,144.9695
Clifton Hill,42 Grant St,3,casa,1500000,3.4,3068,1,1,230,127,1900,-37788,144.99669
Fitzroy North,780 Brunswick St,3,casa,1371000,3.5,3068,1,1,197,128,1900,-37.7835,144.9816
Richmond,255 Coppin St,3,casa,1275000,2.6,3121,1,2,204,128,1900,-37.8285,145.0022
Richmond,30 Rowena Pde,3,casa,1345000,2.6,3121,1,1,209,128,1900,-37.8206,144.9913
Collingwood,10/79 Oxford St,2,kitnet,1260000,1.6,3066,1,1,,129,1900,-37.8042,144.9845
Footscray,95 Gordon St,3,casa,780000,6.4,3011,1,2,323,129,1900,-37.7935,144.8893
Brunswick,311 Albion St,3,casa,825000,5.2,3056,1,1,210,130,1900,-37.7597,144.9545
Kew,33 Disraeli St,3,casa,1440000,5.6,3101,1,1,298,130,1900,-37.8021,145.0391
Hawthorn,16 Pine St,3,casa,1712000,4.6,3122,1,1,342,130,1900,-37814,145.0212
Malvern,30 Grace St,2,casa,,7.4,3144,1,2,383,130,1900,-37.8596,145.0357
Coburg,11 Station St,3,casa,725000,7.8,3058,1,0,238,131,1900,-37.7539,144.9612
Ascot Vale,78 The Parade,3,casa,1440000,5.9,3032,1,1,487,131,1900,-37.7725,144.9146
Middle Park,198 Page St,3,casa,2350000,4.1,3206,1,2,277,132,1900,-37.8516,144.9624
Middle Park,277 Danks St,3,casa,2600000,4.1,3206,1,1,279,133,1900,-37.8499,144957
Brunswick West,121 Pearson St,3,casa,1300000,5.9,3055,1,2,364,135,1900,-37.7618,144.9497
Essendon,42 Fitzgerald Rd,3,casa,1131000,8,3040,1,1,387,135,1900,-37.75499,144.91594
North Melbourne,2/22 Atkin St,2,apartamento,,2.3,3051,1,1,,136,1900,-37.8035,144.9489
Seddon,54 Charles St,3,casa,1032000,6.6,3011,1,0,224,136,1900,-37.8067,144.8934
Brunswick,129 Albion St,4,casa,1115000,5.2,3056,1,0,264,139,1900,-37.7611,144.9677
Richmond,25 Egan St,3,casa,1074000,2.6,3121,1,0,245,140,1900,-37.8138,144.9921
Flemington,11 Finsbury St,3,casa,1130000,4.4,3031,1,0,294,140,1900,-37.7856,144.9292
Northcote,24 Barry St,3,casa,1715000,5.5,3070,1,1,407,143,1900,-37.7799,144.9937
Surrey Hills,95 Guildford Rd,4,casa,1700000,11.2,3127,1,1,579,143,1900,-37.8224,145.0959
Richmond,25 Palmer St,4,casa,1775000,2.6,3121,1,0,434,144,1900,-37.8185,145.0061
Seddon,40 Hotham St,3,casa,,6.6,3011,1,2,247,145,1900,-37.8088,144.8917
Essendon,7 Hilda St,3,casa,1150000,8,3040,1,0,300,145,1900,-37.7548,144.9315
Elsternwick,10 Bayview St,3,casa,,8.5,3185,1,1,371,146,1900,-37.8796,145.0118
Cremorne,27 Balmain St,3,casa,1350000,2.5,3121,1,1,117,147,1900,-37.82981,144.99227
Williamstown,16 Princes St,4,casa,1126000,8,3016,1,1,307,150,1900,-37.8525,144.8945
Hawthorn,28 Johnson St,4,casa,,4.6,3122,1,1,354,151,1900,-37.8173,145.0382
Kew,40 Hartington St,3,casa,,5.6,3101,1,1,315,153,1900,-37.7998,145.0432
Moonee Ponds,119 Eglinton St,3,casa,,6.9,3039,1,1,310,155,1900,-37.7685,144.9106
Brunswick West,214 Hope St,4,casa,,5.9,3055,1,2,474,156,1900,-37.7623,144.9472
Moonee Ponds,35 Athol St,3,casa,1425000,6.9,3039,1,1,526,159,1900,-37.7701,144.9172
Prahran,48 Wrights Tce,2,casa,1303000,4.5,3181,1,0,288,160,1900,-37.8512,145.0053
Hampton,310 Hampton St,4,casa,2600000,13.7,3188,1,2,1504,162,1900,-37944,145.0015
Armadale,25 Llaneast St,4,casa,2200000,6.3,3143,1,2,495,163,1900,-37.8613,145.0264
Northcote,155 Westbourne Gr,3,casa,1510000,5.5,3070,1,3,327,165,1900,-37.7741,144.9971
Ascot Vale,1 Bloomfield Rd,3,casa,1305000,5.9,3032,1,1,278,166,1900,-37.7768,144.9223
Ascot Vale,10 McCully St,3,casa,1377000,5.9,3032,1,1,417,168,1900,-37.7756,144.9208
Moonee Ponds,35 Addison St,4,casa,1637000,6.9,3039,1,3,539,190,1900,-37.7701,144.9287
Murrumbeena,4 Sydney St,4,casa,,12.1,3163,1,1,556,210,1900,-37.8883,145.0692
Prahran,35 Chomley St,2,casa,1180000,4.5,3181,1,0,214,215,1900,-37.8577,145.0053
Hawthorn,6 Power St,4,casa,,4.6,3122,1,2,851,225,1900,-37.8141,145.0276
Essendon,33 McCarron Pde,4,casa,1635000,8,3040,1,2,638,227,1900,-37.7523,144.9052
Essendon,33 McCarron Pde,4,casa,1535000,8,3040,1,2,638,227,1900,-37.7523,144.9052
Armadale,44 Denbigh Rd,4,casa,3625000,6.3,3143,1,2,709,251,1900,-37.8574,145016
Richmond,43 Gardner St,2,casa,1050000,2.6,3121,1,0,134,63.7,1900,-37.82499,145.0104
Fitzroy,233 Gore St,2,casa,1200000,1.6,3065,1,0,63,,1900,-37.79593,
Carlton,3 Charles St,2,casa,,1.8,3053,1,1,105,,1900,-37.80684,144.84957
Middle Park,81 Carter St,2,casa,1335000,4.1,3206,1,1,107,,1900,-37.78991,144.92797
Middle Park,81 Carter St,2,casa,1020000,4.1,3206,1,1,107,,1900,-37.8468,144.9612
Richmond,41 Clifton St,2,casa,1035000,2.6,3121,1,0,108,,1900,-37.8251,144.9959
Cremorne,13 Gough Pl,2,casa,,2.5,3121,1,0,110,,1900,-37.8288,144.9888
South Melbourne,32 Bridport St,2,casa,,2.1,3205,1,0,112,,1900,-37.8387,144.9618
Prahran,14 Doon St,3,casa,1430000,4.5,3181,1,0,135,,1900,-37.8495,144.9885
Albert Park,75 Graham St,2,casa,1110000,3.3,3206,1,0,147,,1900,-37.8444,144.9484
Brunswick,28 Blair St,2,casa,1100000,5.2,3056,1,0,153,,1900,-37.7705,144.9647
Richmond,8 Neptune St,2,casa,965000,2.6,3121,1,0,158,,1900,-37.8201,145007
Collingwood,20 Hotham St,3,casa,1260000,1.6,3066,1,0,167,,1900,-37.7962,144.9866
Parkville,66 Fitzgibbon St,2,casa,1851000,2.6,3052,1,1,172,,1900,-37.7948,144.9571
Fitzroy North,11 Freeman St,3,casa,1655000,3.5,3068,1,0,176,,1900,-37.7892,144.9773
Brunswick,5 Charles St,3,casa,,5.2,3056,1,0,179,,1900,-37.7745,144.9634
Kensington,25 Chelmsford St,2,casa,960000,4.2,3031,1,0,179,,1900,-37.7963,144.9327
Abbotsford,53 Turner St,2,casa,,2.5,3067,1,2,201,,1900,-37.7995,144.9974
Albert Park,129 Kerferd Rd,3,casa,1900000,3.3,3206,1,0,209,,1900,-37.8468,144.9546
Footscray,39 Dudley St,2,casa,900000,6.4,3011,1,0,210,,1900,-37.7969,144883
Albert Park,14 Merton St,2,casa,,3.3,3206,1,0,215,,1900,-37.8405,144953
Moonee Ponds,3 Victoria St,2,casa,822500,6.9,3039,1,1,219,,1900,-37.7627,144.9141
Northcote,141 Arthurton Rd,2,casa,910000,5.5,3070,1,2,229,,1900,-37.7681,144.9877
Brunswick East,5 John St,3,casa,910000,4.5,3057,1,1,231,,1900,-37.7759,144976
Fairfield,192 Gillies St,3,casa,1064000,5.8,3078,1,1,235,,1900,-37.7698,145.0183
Kensington,56 Tennyson St,3,casa,1050000,4.2,3031,1,1,274,,1900,-37.7984,144929
Middle Park,76 Harold St,3,casa,2360000,4.1,3206,1,1,288,,1900,-37.8507,144.9591
Moonee Ponds,172 Maribyrnong Rd,3,casa,930000,6.9,3039,1,1,305,,1900,-37.7711,144.9122
Carlton North,527 Nicholson St,3,casa,1330000,3.2,3054,1,1,314,,1900,-37.7871,144.9766
Elwood,59 Spray St,3,casa,1911000,7.7,3184,1,2,327,,1900,-37.8846,144.9879
Surrey Hills,15 Middlesex Rd,3,casa,,11.2,3127,1,0,351,,1900,-37.8269,145.09
Brunswick,46 Cassels Rd,2,casa,860000,5.2,3056,1,2,352,,1900,-37.7566,144.9599
Richmond,48 Rooney St,3,casa,1820000,2.6,3121,1,1,410,,1900,-37.8292,145.0029
Northcote,70 James St,3,casa,1450000,5.5,3070,1,1,489,,1900,-37.7756,145.0002
Carnegie,14 Margaret St,2,casa,1300000,11.4,3163,1,1,640,,1900,-37891,145.0636
Northcote,118 Westgarth St,3,casa,1500000,5.5,3070,1,8,727,,1900,-37.7825,145.0072
Northcote,118 Westgarth St,4,casa,1822000,5.5,3070,1,8,728,,1900,-37.77049,145.0099
Richmond,40 York St,3,casa,1550000,2.6,3121,2,1,131,76,1900,-37.8132,144.9929
Richmond,6 Brady St,3,casa,1275000,2.6,3121,2,1,132,95,1900,-37822,145.0041
North Melbourne,9 Harris St,2,casa,,2.3,3051,2,1,133,97,1900,-37.7996,144.9492
West Melbourne,24 Franklin Pl,3,apartamento,,1.9,3003,2,2,,100,1900,-37812,144.9491
North Melbourne,18 Melrose St,2,casa,1010000,2.3,3051,2,0,109,100,1900,-37795,144942
Prahran,75 Pridham St,3,casa,1220000,4.5,3181,2,1,112,100,1900,-37.8517,145.0056
Port Melbourne,284 Nott St,3,casa,,3.8,3207,2,1,172,100,1900,-37.8333,144.9457
Middle Park,287 Richardson St,4,casa,3120000,4.1,3206,2,1,182,100,1900,-37.8518,144.9663
Carlton,254 Faraday St,3,casa,1590000,1.8,3053,2,2,100,106,1900,-37.7983,144.9655
Armadale,10 William St,1,casa,1435000,6.3,3143,2,1,144,107,1900,-37.8564,145.0228
Malvern,17 Horace St,3,casa,,7.4,3144,2,1,226,108,1900,-37.8627,145.0391
Richmond,320 Church St,3,casa,1651000,2.6,3121,2,1,192,111,1900,-37.8212,144.9985
Brunswick,8/2 Pottery Ct,3,apartamento,641000,5.2,3056,2,1,,112,1900,-37.7703,144.9533
Brunswick,8/2 Pottery Ct,3,apartamento,641000,5.2,3056,2,1,,112,1900,-37.7703,144.9533
Richmond,29 Westbank Tce,3,casa,1850000,2.6,3121,2,1,203,112,1900,-37.8214,145.0132
Richmond,30 Kent St,3,casa,,2.6,3121,2,1,219,112,1900,-37.8149,145.0017
South Yarra,34 Alexandra St,3,casa,,3.3,3141,2,0,174,116,1900,-37.8408,144.9879
Albert Park,24 Kerferd Pl,3,casa,1800000,3.3,3206,2,1,90,122,1900,-37.8421,144.9571
Prahran,14 Bowen St,2,casa,,4.5,3181,2,2,211,122,1900,-37.8551,145.0037
Ascot Vale,98 Epsom Rd,3,casa,971000,5.9,3032,2,2,285,128,1900,-37775,144.9091
Kingsville,52a Williamstown Rd,2,casa,730000,7.8,3012,2,0,84,130,1900,-37.8058,144.8846
Port Melbourne,95 Heath St,3,casa,1560000,3.8,3207,2,2,241,131,1900,-37.8346,144.9448
Coburg,34 Reynard St,4,casa,1005000,7.8,3058,2,1,172,135,1900,-37.74833,144.96336
Abbotsford,3/72 Charles St,4,casa,1330000,2.5,3067,2,2,780,135,1900,-37.8073,144.9952
Port Melbourne,164 Liardet St,3,casa,1342000,3.8,3207,2,2,173,137,1900,-37.8375,144941
Elwood,23 Byron St,3,casa,1520000,7.7,3184,2,1,362,138,1900,-37.87891,144.99332
Prahran,62 Pridham St,3,casa,1612000,4.5,3181,2,0,146,139,1900,-37.8519,145.0055
Brunswick West,10 Shamrock St,3,casa,1100000,5.9,3055,2,1,169,139,1900,-37.75852,144.95039
Williamstown,33 Cecil St,3,casa,1310000,8,3016,2,1,185,139,1900,-37.8664,144.9072
Toorak,13 Bruce St,3,casa,1900000,4.6,3142,2,1,268,139,1900,-37.8369,145.0072
Middle Park,87 Carter St,3,casa,,4.1,3206,2,0,133,140,1900,-37847,144.9615
Seddon,44 Alexander St,3,casa,1075000,6.6,3011,2,1,306,140,1900,-37.8038,144.8896
Richmond,134 Coppin St,3,casa,1456000,2.6,3121,2,1,157,141,1900,-37.8225,145.0029
Richmond,8 Survey St,4,casa,1591000,2.6,3121,2,1,263,145,1900,-37.8261,145.0127
Albert Park,86 Mills St,3,casa,2000000,3.3,3206,2,1,211,147,1900,-37847,144.9575
Kensington,33 Barnett St,3,casa,1260000,4.2,3031,2,2,250,147,1900,-37792,144.9324
Coburg,3 Beckwith St,3,casa,1250000,7.8,3058,2,2,500,148,1900,-37.7382,144.96526
Abbotsford,5 Charles St,3,casa,1465000,2.5,3067,2,0,134,150,1900,-37.8093,144.9944
South Melbourne,50 Bridport St,2,casa,2000000,2.1,3205,2,1,141,150,1900,-37.8389,144.9612
Flemington,29 Finsbury St,3,casa,1100000,4.4,3031,2,0,179,150,1900,-37.7857,144.9305
Hawthorn East,16 Stewart St,4,casa,,7.5,3123,2,1,259,150,1900,-37.8223,145.0551
Northcote,96 Helen St,3,casa,,5.5,3070,2,1,278,151,1900,-37.77,144.9976
Thornbury,42 Mansfield St,4,casa,1478000,6.5,3071,2,0,387,152,1900,-37.7569,145.0041
South Melbourne,296 Albert Rd,3,casa,1825000,2.1,3205,2,2,151,153,1900,-37.8383,144.9632
Elsternwick,29 Hartington St,4,casa,,8.5,3185,2,2,534,154,1900,-37.8913,145.0119
Collingwood,19/125 Oxford St,2,kitnet,,1.6,3066,2,1,,155,1900,-37.8024,144.9848
Ascot Vale,21 Middle St,3,casa,1130000,5.9,3032,2,1,272,157,1900,-37.7774,144928
Yarraville,29 Frederick St,4,casa,1200000,7,3013,2,2,417,157,1900,-37.8197,144.8969
Port Melbourne,255 Ross St,4,casa,1820000,3.8,3207,2,1,212,158,1900,-37.8331,144.9412
Newport,8 Agg St,3,casa,993000,8.4,3015,2,2,348,158,1900,-37.8435,144.8788
Ascot Vale,43 Bloomfield Rd,4,casa,1430000,5.9,3032,2,0,418,158,1900,-37.7766,144.9187
Newport,73 William St,4,casa,,8.4,3015,2,2,345,160,1900,-37.8377,144.8796
Carlton North,292 Amess St,4,casa,1950000,3.2,3054,2,2,207,162,1900,-37.7804,144.9748
Prahran,26 Willis St,3,casa,1720000,4.5,3181,2,1,272,163,1900,-37.8553,145007
Richmond,288 Church St,3,casa,1555000,2.6,3121,2,1,189,164,1900,-37.82,144.9987
Fitzroy North,70 Park St,4,casa,1785000,3.5,3068,2,1,188,165,1900,-37.7815,144.9869
Hawthorn East,36 Invermay Gr,4,casa,2381000,7.5,3123,2,2,457,166,1900,-37.8332,145.0461
Toorak,623 Malvern Rd,3,casa,,4.6,3142,2,0,194,167,1900,-37.8485,145.0074
Toorak,46 Evelina Rd,6,casa,,4.6,3142,2,0,244,167,1900,-37.8468,145.0062
Elwood,1 Thackeray St,3,casa,,7.7,3184,2,2,295,167,1900,-37.8763,144979
South Melbourne,20 Glover St,3,casa,2240000,2.1,3205,2,1,197,168,1900,-37.80461,144.89673
Ascot Vale,44 Walter St,3,casa,1381500,5.9,3032,2,2,416,168,1900,-37.7727,144.9055
Richmond,9 Type St,4,casa,1510000,2.6,3121,2,0,,171,1900,-37.8206,145.0099
Essendon,65 Napier St,3,casa,1467000,8,3040,2,2,188,171,1900,-37.7532,144.9178
Carlton North,392 Station St,2,casa,2400000,3.2,3054,2,0,413,172,1900,-37.7875,144.9759
Brighton,15 Rooding St,3,casa,,11.2,3186,2,2,575,174,1900,-37.9036,145.0008
Yarraville,7 Stewart St,4,casa,1340000,7,3013,2,0,297,175,1900,-37.8108,144888
Balaclava,58 William St,3,casa,,6.6,3183,2,1,196,180,1900,-37.8718,144.9941
Balaclava,18 Linton St,4,casa,1819000,6.6,3183,2,1,244,180,1900,-37.8668,144.9928
Brunswick,177 Barkly St,4,casa,1800000,5.2,3056,2,3,271,180,1900,-37.7769,144.9691
Kew,88 Edgevale Rd,4,casa,2315000,5.6,3101,2,0,364,183,1900,-37.8125,145043
Albert Park,8 Kerferd Pl,4,casa,,3.3,3206,2,0,230,185,1900,-37842,144958
Kew,14 Byron St,3,casa,,5.6,3101,2,1,283,187,1900,-37.8119,145.0413
Port Melbourne,91 Cruikshank St,4,casa,,3.8,3207,2,0,353,189,1900,-37.8381,144.9469
Elwood,335 Barkly St,4,casa,,7.7,3184,2,2,497,190,1900,-37.8765,144.9792
Travancore,110 Baroda St,4,casa,1562000,5.3,3032,2,1,621,192,1900,-37.7778,144.9346
Richmond,46 Park Gr,4,casa,1800000,2.6,3121,2,0,288,193,1900,-37.8268,145.0129
Collingwood,15 Forest St,4,casa,,1.6,3066,2,1,194,194,1900,-37.7961,144.9919
Hawthorn East,4 Temple St,6,casa,1666000,7.5,3123,2,0,350,198,1900,-37.8219,145.0556
Malvern,15 Winter St,4,casa,,7.4,3144,2,1,504,198,1900,-37.86,145.0305
Moonee Ponds,24 Hotham St,3,casa,1630000,6.9,3039,2,0,408,199,1900,-37.77,144913
Brunswick,25 Merri St,4,casa,,5.2,3056,2,1,202,202,1900,-37.7724,144.9629
Elsternwick,87 Orrong Rd,3,casa,1750000,8.5,3185,2,2,517,207,1900,-37.8813,145.0063
Hawthorn East,186 Rathmines Rd,4,casa,,7.5,3123,2,2,410,209,1900,-37.8212,145.0556
Malvern East,26 Fisher St,4,casa,,11.2,3145,2,4,720,209,1900,-37.8811,145.0574
Maribyrnong,33 Newstead St,3,casa,1320000,8.7,3032,2,2,645,211,1900,-37.7662,144.8971
Williamstown,33 Hannan St,4,casa,2230000,8,3016,2,2,782,212,1900,-37.8647,144.8867
Elwood,90 Milton St,3,casa,,7.7,3184,2,0,260,215,1900,-37.8754,144.9812
Northcote,29 Westgarth St,4,casa,1700000,5.5,3070,2,1,415,218,1900,-37.7807,144.9948
Middle Park,319 Richardson St,5,casa,,4.1,3206,2,1,305,220,1900,-37.8527,144.9674
Hawthorn East,91 Rathmines Rd,4,casa,2350000,7.5,3123,2,2,556,220,1900,-37.8204,145.0516
Oakleigh,110 Atkinson St,4,casa,1840000,14,3166,2,2,598,222,1900,-37.89989,145.10143
Armadale,35 Northcote Rd,4,casa,2801000,6.3,3143,2,2,624,222,1900,-37.8536,145.0173
Northcote,157 Bastings St,5,casa,1750000,5.5,3070,2,0,406,225,1900,-37.76338,144.99504
Armadale,10 Egerton Rd,4,casa,,6.3,3143,2,2,449,232,1900,-37.8628,145.0226
Kew,17 Hartington St,5,casa,2800000,5.6,3101,2,3,920,241,1900,-37.8017,145.0419
Brighton,13 Rooding St,4,casa,,11.2,3186,2,2,749,250,1900,-37.9036,145.0006
Malvern East,61 Finch St,4,casa,,11.2,3145,2,2,776,251,1900,-37.8697,145.0434
Camberwell,22 Kintore St,4,casa,,7.8,3124,2,2,793,265,1900,-37823,145.0615
Camberwell,34 Seymour Gr,5,casa,,7.8,3124,2,2,814,278,1900,-37.8356,145.0582
Ascot Vale,26 Ayr St,6,casa,1430000,5.9,3032,2,1,461,286,1900,-37.78,144.9295
Newport,50 Alma Tce,4,casa,,8.4,3015,2,0,389,390,1900,-37.8489,144.8911
Yarraville,46 Wilson St,3,casa,908000,7,3013,2,0,105,,1900,-37.8191,144.8909
Fitzroy,124 Westgarth St,3,casa,1481000,1.6,3065,2,1,138,,1900,-37795,144.9806
Port Melbourne,143 Pickles St,3,casa,1916000,3.8,3207,2,1,190,,1900,-37.8393,144947
Abbotsford,99 Turner St,2,casa,,2.5,3067,2,1,202,,1900,-37.7996,144.9989
Prahran,19 Chatsworth Rd,3,casa,2385000,4.5,3181,2,2,217,,1900,-37.8523,145.0064
Hawthorn East,37 Auburn Gr,3,casa,,7.5,3123,2,2,229,,1900,-37.8256,145.0487
Yarraville,27 Regent St,3,casa,1414000,7,3013,2,2,230,,1900,-37.8124,144.8875
Middle Park,135 Neville St,4,casa,,4.1,3206,2,2,249,,1900,-37.85492,144.96115
South Yarra,334 Punt Rd,3,casa,1800000,3.3,3141,2,3,510,,1900,-37.8418,144986
Caulfield North,22 Malakoff St,4,casa,,8.1,3161,2,2,645,,1900,-37869,145.0274
Kew,2 Fernhurst Gr,4,casa,2450000,5.6,3101,2,2,1012,,1900,-37.8067,145.0277
Richmond,23 Abinger St,3,casa,,2.6,3121,3,2,127,133,1900,-37.8202,145.0011
Port Melbourne,130 Clark St,4,casa,2700000,3.8,3207,3,2,317,156,1900,-37.84441,144.9378
Elwood,78 Dickens St,4,casa,2200000,7.7,3184,3,2,348,218,1900,-37.8748,144.9778
Brighton,18 Victoria St,4,casa,3700000,11.2,3186,3,2,742,247,1900,-37914,144.9878
Coburg,144 The Avenue,4,casa,1250000,7.8,3058,3,1,515,249,1900,-37.7537,144.9766
Prahran,72 Chomley St,4,casa,,4.5,3181,3,2,450,257,1900,-37.8555,145006
Camberwell,34 Moorhouse St,4,casa,,7.8,3124,3,1,600,264,1900,-37.82857,145.06722
Ascot Vale,44 The Parade,4,casa,1850000,5.9,3032,3,1,478,270,1900,-37.7729,144.9179
Surrey Hills,8 Durham Rd,4,casa,2370000,11.2,3127,3,2,773,300,1900,-37.83472,145.09134
Canterbury,6 Cross St,4,casa,,9,3126,3,2,585,302,1900,-37.8274,145.0803
Canterbury,14 Selwyn St,5,casa,,9,3126,3,2,900,334,1900,-37.83,145.0847
South Yarra,7 Motherwell St,4,casa,2667000,3.3,3141,3,2,446,,1900,-37.8454,144.9989
Moonee Ponds,25 Mantell St,4,casa,2400000,6.9,3039,4,2,636,308,1900,-37.7629,144.9157
St Kilda,10 Charlotte Pl,5,casa,4400000,6.1,3182,4,4,657,312,1900,-37.8582,144.9913
Hampton,29 Thomas St,5,casa,3075000,13.7,3188,2,2,830,204,1901,-37.9386,145006
Fitzroy,127 George St,4,casa,1780000,1.6,3065,1,1,186,,1902,-37.8048,144.9806
Hawthorn East,63 Victoria Rd,5,casa,2250000,7.5,3123,2,2,452,319,1902,-37.8223,145.0494
Mont Albert,72 Churchill St,4,casa,3900000,11.8,3127,2,6,2187,327,1903,-37.8186,145.1134
Clifton Hill,32 Caroline St,4,casa,3010000,3.4,3068,3,2,382,250,1903,-37.7897,144.9992
Ascot Vale,120 Epsom Rd,3,casa,970000,5.9,3032,1,2,350,125,1904,-37.7759,144.91
Clifton Hill,487 Hoddle St,3,casa,1652500,3.4,3068,1,0,276,170,1904,-37.7933,144.9938
Canterbury,25 Myrtle Rd,4,casa,,9,3126,2,6,1266,256,1904,-37825,145.0714
Hampton,36 Thomas St,4,casa,3250000,13.7,3188,3,2,928,300,1904,-37.9389,145.0062
Prahran,44 Spring St,1,casa,860000,4.5,3181,1,0,108,54,1905,-37.85125,144.99028
Port Melbourne,230 Nott St,3,casa,1384000,3.8,3207,1,0,184,100,1905,-37.8348,144.9443
Brunswick,234 Victoria St,2,casa,1026000,5.2,3056,1,0,225,108,1905,-37.7676,144.9665
Hawthorn,95 Church St,3,casa,1525000,4.6,3122,1,0,269,134,1905,-37.81624,145.03671
Brunswick,116 Glenlyon Rd,4,casa,,5.2,3056,1,2,343,152,1905,-37.7725,144.9683
Richmond,80 Bunting St,2,casa,951000,2.6,3121,1,0,108,,1905,-37.8259,145.0089
Heidelberg,175 Cape St,3,casa,1455000,10.6,3084,1,4,836,,1905,-37.7509,145.0679
Windsor,9 Newry St,3,casa,,5.1,3181,2,1,173,55,1905,-37.8558,145
Fitzroy North,55 Seacombe St,3,casa,1450000,3.5,3068,2,1,118,103,1905,-37.7839,144.9807
Fitzroy North,51 Rae St,2,casa,770000,3.5,3068,2,1,134,151,1905,-37.7916,144.9784
Canterbury,14 Golding St,4,casa,,9,3126,2,2,598,157,1905,-37.8283,145.0845
Box Hill,18 Glenmore St,4,casa,1560000,13.1,3128,2,3,729,167,1905,-37.8233,145.1267
Hawthorn East,336 Riversdale Rd,4,casa,2450000,7.5,3123,2,1,697,172,1905,-37.8307,145.0498
Elsternwick,4 Buxton St,3,casa,1755000,8.5,3185,2,1,391,173,1905,-37.8885,145.0133
Elsternwick,21 Liscard St,3,casa,1800000,8.5,3185,2,2,492,181,1905,-37.8789,145.0048
Carlton North,235 Amess St,4,casa,3450000,3.2,3054,2,1,515,203,1905,-37.78167,144.97415
Hawthorn,4 Bowen St,4,casa,2670000,4.6,3122,2,1,336,235,1905,-37.8183,145.0371
Elwood,58 Tennyson St,6,casa,,7.7,3184,2,3,565,284,1905,-37.8751,144.9882
Thornbury,146 Rossmoyne St,3,casa,1200000,6.5,3071,2,1,345,345,1905,-37.7582,145.0094
Flemington,65 Victoria St,3,casa,850000,4.4,3031,2,0,162,,1905,-37.7866,144.9343
Brighton,133 Head St,4,casa,2905000,11.2,3186,3,1,487,260,1905,-37.8926,144.9991
Heidelberg,137 Hawdon St,5,casa,,10.6,3084,3,0,1222,316,1905,-37.7523,145.0645
Hawthorn East,452 Barkers Rd,5,casa,3210000,7.5,3123,3,4,1011,,1905,-37.8165,145.0505
Glen Iris,1485 High St,4,casa,,9.2,3146,4,2,834,334,1905,-37.8596,145.0542
Malvern East,10 Manning Rd,5,casa,,11.2,3145,4,4,1410,,1905,-37.8726,145.0449
South Yarra,37 Grosvenor St,3,casa,1810000,3.3,3141,1,1,211,18,1906,-37.8442,144.9928
Moonee Ponds,4 Addison St,4,casa,1530000,6.9,3039,2,1,431,152,1906,-37.7702,144.9268
Camberwell,19 Stanhope Gr,4,casa,,7.8,3124,2,2,1003,252,1906,-37.8243,145.0655
Caulfield North,88 Eskdale Rd,4,casa,,8.1,3161,2,2,1107,,1906,-37.8768,145.0325
Hawthorn East,58 Auburn Gr,4,casa,3100000,7.5,3123,2,2,640,232,1907,-37826,145.0498
Mont Albert,2 Gawler Ct,5,casa,,11.8,3127,2,2,944,300,1907,-37.8143,145.1102
St Kilda,26 Nelson St,2,casa,808000,6.1,3182,1,0,124,,1908,-37.8562,144.9848
Elsternwick,2 Park St,3,casa,2345000,8.5,3185,2,1,419,204,1908,-37.8817,145.0126
St Kilda,14 Kipling St,5,casa,,6.1,3182,2,1,611,257,1908,-37864,144.9896
South Yarra,16h Stables La,1,kitnet,280000,3.3,3141,1,0,,35,1910,-37.8423,144997
Thornbury,2/6 Kemp St,1,kitnet,517500,6.5,3071,1,0,,53,1910,-37762,144996
Fitzroy North,50 Freeman St,2,casa,870000,3.5,3068,1,0,107,64,1910,-37.7898,144.9794
Brunswick,35 Percy St,2,casa,705000,5.2,3056,1,1,161,68,1910,-37.7646,144.9586
North Melbourne,3 George St,2,casa,,2.3,3051,1,1,160,69,1910,-37.7904,144.9409
Port Melbourne,8 Garton St,2,casa,1080000,3.8,3207,1,0,105,70,1910,-37.8338,144.9474
Port Melbourne,172 Albert St,2,casa,1060000,3.8,3207,1,0,106,70,1910,-37.8346,144.9373
Port Melbourne,243 Graham St,2,casa,1101000,3.8,3207,1,0,152,71,1910,-37.8393,144.9386
Middle Park,15 Fraser St,2,casa,1025000,4.1,3206,1,0,123,73,1910,-37.8551,144968
Middle Park,33 Nimmo St,2,casa,1920000,4.1,3206,1,0,152,82,1910,-37.8498,144.9628
Clifton Hill,85 Roseneath St,2,casa,1105000,3.4,3068,1,1,185,84,1910,-37.7927,144.9981
Prahran,8 MacKay St,2,casa,,4.5,3181,1,0,184,85,1910,-37.85081,145.00884
Preston,13 Garnet St,2,casa,,8.8,3072,1,1,214,85,1910,-37.7462,145.0044
Preston,13 Garnet St,2,casa,700000,8.8,3072,1,1,214,85,1910,-37.7462,145.0044
Williamstown,77 Melbourne Rd,3,casa,1210000,8,3016,1,0,249,85,1910,-37.86,144895
Northcote,8 Reid St,2,casa,1095000,5.5,3070,1,2,306,86,1910,-37.7644,145004
Brunswick,157 Albion St,2,casa,770000,5.2,3056,1,0,152,87,1910,-37.7611,144966
Port Melbourne,210 Heath St,3,casa,,3.8,3207,1,0,157,87,1910,-37.8324,144.9474
Brunswick West,201 Hope St,2,casa,711000,5.9,3055,1,1,177,87,1910,-37.7619,144.9412
Albert Park,5 Withers St,3,casa,,3.3,3206,1,0,126,88,1910,-37.8427,144.9515
Brunswick,105 Dawson St,2,casa,860000,5.2,3056,1,1,298,88,1910,-37.7704,144.9504
South Yarra,9 Moore St,3,casa,1125000,3.3,3141,1,0,146,89,1910,-37.8454,144.9888
Port Melbourne,95 Station St,2,casa,1150000,3.8,3207,1,0,82,90,1910,-37.8361,144.9403
Footscray,167 Gordon St,2,casa,711000,6.4,3011,1,2,253,90,1910,-37.7968,144.8887
Kew,75 Earl St,2,casa,2875000,5.6,3101,1,1,1065,90,1910,-37.7944,145.0339
Brunswick,39 Eveline St,3,casa,1125000,5.2,3056,1,1,278,91,1910,-37.7701,144.9633
Richmond,43 Type St,3,casa,1270000,2.6,3121,1,1,152,92,1910,-37.8219,145.0096
Northcote,19 Hunter St,2,casa,890000,5.5,3070,1,1,225,92,1910,-37.7663,145.0009
Footscray,65 Hyde St,3,casa,740000,6.4,3011,1,1,211,94,1910,-37.8059,144901
Coburg,53 Hawthorn St,2,casa,903000,7.8,3058,1,1,253,94,1910,-37.7484,144.9521
Kingsville,18 Queensville St,3,casa,,7.8,3012,1,1,274,94,1910,-37.8046,144.8839
Port Melbourne,176 Dow St,3,casa,1080000,3.8,3207,1,2,116,95,1910,-37.8401,144943
Fitzroy,442 George St,3,casa,,1.6,3065,1,0,149,96,1910,-37.79757,
Brunswick,77 Blyth St,3,casa,950000,5.2,3056,1,0,170,96,1910,-37.7661,144.9691
Armadale,40 New St,2,casa,1210000,6.3,3143,1,0,249,96,1910,-37.8543,145016
Yarraville,2 Hood St,4,casa,1158000,7,3013,1,3,411,96,1910,-37.8117,144.8873
Clifton Hill,413a Wellington St,2,casa,1209000,3.4,3068,1,1,140,97,1910,-37.7919,144.9884
St Kilda,34 Acland St,2,casa,1301000,6.1,3182,1,1,165,97,1910,-37.86364,144.97485
Footscray,8 Jerrold St,2,casa,752000,6.4,3011,1,0,215,98,1910,-37.7922,144891
Coburg,2 Bourke St,2,casa,,7.8,3058,1,1,250,98,1910,-37.7381,144.9574
Brunswick,6 Murdock St,3,casa,,5.2,3056,1,0,262,98,1910,-37.7556,144.9588
Northcote,118 Roberts St,2,casa,1101000,5.5,3070,1,0,229,99,1910,-37.7784,145.0042
Brunswick East,9 Sedgman St,3,casa,,4.5,3057,1,1,152,100,1910,-37.7694,144.9738
Brunswick,175 Edward St,3,casa,1261000,5.2,3056,1,1,216,100,1910,-37.7746,144.9697
Malvern East,11 Findon St,2,casa,1036000,11.2,3145,1,1,310,102,1910,-37.8717,145.0399
Brunswick,411 Barkly St,2,casa,945000,5.2,3056,1,2,246,103,1910,-37775,144.9536
Coburg,59 Sheffield St,1,casa,,7.8,3058,1,2,325,103,1910,-37.7465,144969
Seddon,16 Margaret St,3,casa,965000,6.6,3011,1,0,217,104,1910,-37.8037,144.8874
Ascot Vale,78 Francis St,3,casa,1135000,5.9,3032,1,1,296,104,1910,-37777,144.9176
Yarraville,83 Tarrengower St,3,casa,1165000,7,3013,1,0,191,105,1910,-37.8175,144.8879
South Melbourne,27 Lyell St,3,casa,1820000,2.1,3205,1,1,204,105,1910,-37.83874,144.96398
Clifton Hill,133 Roseneath St,2,casa,,3.4,3068,1,1,219,105,1910,-37.7928,144.9993
Yarraville,5 Hood St,2,casa,1000000,7,3013,1,1,220,105,1910,-37.8115,144.8875
Northcote,6 Clarke St,3,casa,1050000,5.5,3070,1,0,158,106,1910,-37.7756,144.9891
Kensington,35 Henry St,3,casa,1037000,4.2,3031,1,1,188,106,1910,-37.7953,144.9275
Maidstone,1/166 Mitchell St,3,casa,673000,9.2,3012,1,2,285,107,1910,-37.7813,144.8678
Yarraville,19 Stephen St,3,casa,,7,3013,1,0,346,107,1910,-37.8212,144.89358
Glen Iris,318 Tooronga Rd,2,casa,1250000,9.2,3146,1,2,438,107,1910,-37.8511,145.0428
Ascot Vale,17 Ascot St,2,casa,705000,5.9,3032,1,3,252,108,1910,-37.7825,144.9206
Northcote,41 Johnson St,2,casa,1340000,5.5,3070,1,1,297,108,1910,-37.7627,144.9986
Brunswick,73 Davies St,2,casa,1056000,5.2,3056,1,1,315,108,1910,-37757,144.9697
Essendon,15 Glen St,3,casa,,8,3040,1,1,498,108,1910,-37.7491,144.9154
Coburg,42 Rodda St,2,casa,,7.8,3058,1,2,245,109,1910,-37.74386,144.96968
Brunswick East,22 Hickford St,2,casa,1283000,4.5,3057,1,1,263,109,1910,-37.76605,144.97416
Hawthorn,6 Salisbury Gr,3,casa,1741000,4.6,3122,1,1,383,109,1910,-37.8155,145.0385
Windsor,15 Albert St,3,casa,,5.1,3181,1,2,162,110,1910,-37.8554,144.9845
Carlton North,568 Station St,3,casa,,3.2,3054,1,1,174,114,1910,-37.7832,144.9766
Coburg,29 Hardwick St,2,casa,981000,7.8,3058,1,1,263,114,1910,-37.7493,144.97
Preston,14 Arthur St,2,casa,1065000,8.8,3072,1,3,507,114,1910,-37.7437,144.9995
Malvern East,21 John St,2,casa,,11.2,3145,1,0,217,115,1910,-37.8735,145.0403
Footscray,120 MacPherson St,3,casa,760000,6.4,3011,1,1,265,115,1910,-37.7975,144.8894
Albert Park,4 Ashworth St,3,casa,1700000,3.3,3206,1,1,178,116,1910,-37.84732,144.9495
Prahran,77 Chomley St,3,casa,,4.5,3181,1,1,217,117,1910,-37.8562,145.0056
Ascot Vale,70 Munro St,3,casa,955000,5.9,3032,1,1,263,117,1910,-37.7753,144.9116
Malvern East,9 Emo Rd,2,casa,,11.2,3145,1,2,381,117,1910,-37.88069,145.07914
Coburg,109 Moreland Rd,3,casa,825000,7.8,3058,1,1,374,118,1910,-37.7561,144.9715
Burnley,12 Loyola Gr,2,casa,1231010,3.5,3121,1,2,225,119,1910,-37.8285,145.0125
Seddon,13 Pentland Pde,3,casa,,6.6,3011,1,0,228,120,1910,-37.8086,144.8953
Hawthorn East,6 Munro St,3,casa,,7.5,3123,1,1,249,120,1910,-37.8283,145.0467
Kensington,14 Hardiman St,3,casa,1470000,4.2,3031,1,1,199,121,1910,-37.7957,144932
Fairfield,147 Gillies St,3,casa,1375000,5.8,3078,1,1,496,122,1910,-37.7737,145018
St Kilda,66 Clyde St,2,casa,1365000,6.1,3182,1,1,361,123,1910,-37.8646,144.98
Prahran,117 Charles St,3,casa,1255000,4.5,3181,1,1,231,124,1910,-37.8467,144.9894
Surrey Hills,18 Empress Rd,2,casa,1260000,11.2,3127,1,0,269,124,1910,-37.82535,145.10495
Moonee Ponds,29 Winchester St,2,casa,1015000,6.9,3039,1,1,228,125,1910,-37.7685,144.9183
Fairfield,189 Rathmines St,3,casa,1500000,5.8,3078,1,1,,126,1910,-37.7714,145.0173
Brunswick,154 Brunswick Rd,3,casa,1050000,5.2,3056,1,1,239,126,1910,-37.7776,144963
Yarraville,38 Simpson St,3,casa,1275000,7,3013,1,2,229,128,1910,-37.8172,144.8919
Surrey Hills,17 Empress Rd,3,casa,2180000,11.2,3127,1,2,441,128,1910,-37.8204,145.0887
Malvern,22 Milton Pde,3,casa,2415000,7.4,3144,1,3,696,128,1910,-37.8462,145.0386
Kingsville,78 Williamstown Rd,3,casa,,7.8,3012,1,1,308,129,1910,-37.8071,144.8843
Thornbury,45A Harold St,3,casa,1280000,6.5,3071,1,1,253,130,1910,-37.7566,144.9965
Northcote,3 Atkinson St,3,casa,1080000,5.5,3070,1,1,348,130,1910,-37.7799,145011
Hawthorn East,40 Campbell Gr,3,casa,1420000,7.5,3123,1,2,362,130,1910,-37.8337,145.0504
Footscray,36 Windsor St,3,casa,932000,6.4,3011,1,1,451,130,1910,-37.8023,144.8915
Spotswood,24 Forrest St,3,casa,927000,7.7,3015,1,0,274,131,1910,-37.8282,144.8856
Northcote,26 Hayes St,3,casa,1474000,5.5,3070,1,0,304,131,1910,-37.7642,145001
Fitzroy North,168 Scotchmer St,3,casa,1581000,3.5,3068,1,0,193,132,1910,-37.7836,144985
Malvern,14 Woodmason St,3,casa,1437000,7.4,3144,1,1,313,132,1910,-37.8511,145.0317
Brunswick,26 Warburton St,3,casa,1340000,5.2,3056,1,1,316,132,1910,-37.7741,144.9703
Hawthorn,7 Colvin Gr,3,casa,1700000,4.6,3122,1,2,338,132,1910,-37.81389,145.04423
Prahran,55 Chomley St,3,casa,,4.5,3181,1,0,210,133,1910,-37.85292,145.00244
Yarraville,15 Ofarrell St,4,casa,1401000,7,3013,1,1,306,133,1910,-37.8102,144.8885
Moonee Ponds,37 Lennox St,3,casa,1160000,6.9,3039,1,1,449,133,1910,-37.7674,144.9084
Seddon,61 Station Rd,3,casa,990000,6.6,3011,1,0,371,134,1910,-37.8066,144.8853
Kensington,41 Barnett St,3,casa,1165000,4.2,3031,1,0,239,135,1910,-37.7923,144.9324
Ascot Vale,24 Ayr St,3,casa,,5.9,3032,1,2,305,135,1910,-37.7799,144.9296
Northcote,12 Stott St,3,casa,1225000,5.5,3070,1,2,307,135,1910,-37764,144.9976
Moonee Ponds,4 Lennox St,3,casa,840000,6.9,3039,1,0,307,136,1910,-37.7704,144.9083
Brighton,148 Cochrane St,3,casa,,11.2,3186,1,1,318,136,1910,-37.8931,145.0004
Malvern East,9 Chanak St,3,casa,1490000,11.2,3145,1,1,322,137,1910,-37.8726,145.0396
Caulfield North,11 Arthur St,3,casa,1400000,8.1,3161,1,0,270,139,1910,-37868,145.0269
Moonee Ponds,38 Addison St,3,casa,1480000,6.9,3039,1,2,436,142,1910,-37.7704,144.9292
Brighton,25 Rusden St,3,casa,,11.2,3186,1,2,423,143,1910,-37.8873,144.9973
Preston,91 Bruce St,3,casa,1150000,8.8,3072,1,2,566,143,1910,-37.7418,144.9934
Elwood,44 Spray St,3,casa,,7.7,3184,1,1,235,145,1910,-37.8845,144.9885
Moonee Ponds,50 Wilson St,4,casa,1211000,6.9,3039,1,3,477,146,1910,-37.7632,144.9292
Hawthorn,3 Randolph St,3,casa,2065000,4.6,3122,1,1,351,150,1910,-37.8165,145021
Elsternwick,44 Hartington St,4,casa,1400000,8.5,3185,1,1,489,150,1910,-37.8916,145.0123
Fairfield,176 Gillies St,3,casa,,5.8,3078,1,1,496,150,1910,-37.7708,145.0181
Camberwell,21 Radnor St,4,casa,2110000,7.8,3124,1,3,572,150,1910,-37.84108,145062
Box Hill,17 Combarton St,3,casa,1760000,13.1,3128,1,0,741,151,1910,-37.8258,145.1246
Hawthorn East,312 Riversdale Rd,3,casa,,7.5,3123,1,1,349,157,1910,-37.8305,145.0478
Footscray,20 Nicholson St,4,casa,1450000,6.4,3011,1,1,799,160,1910,-37.7958,144.9001
Carlton North,989 Drummond St,3,casa,2950000,3.2,3054,1,2,499,164,1910,-37.7811,144.9715
Coburg,171 Moreland Rd,4,casa,145000,7.8,3058,1,1,536,164,1910,-37.7555,144.9658
Canterbury,11 Mangarra Rd,3,casa,,9,3126,1,1,654,164,1910,-37.8207,145.0686
Brighton,33a Durrant St,2,casa,1532000,11.2,3186,1,2,411,165,1910,-37.9095,145004
Malvern East,61 Repton Rd,3,casa,,11.2,3145,1,1,359,166,1910,-37.8789,145.0525
Brunswick West,53 Heller St,4,casa,1150000,5.9,3055,1,2,519,169,1910,-37.7747,144.9474
Ascot Vale,13 Wigton St,4,casa,,5.9,3032,1,2,462,170,1910,-37.7795,144929
Northcote,13 Andrew St,3,casa,1900000,5.5,3070,1,1,522,174,1910,-37.7752,145.0032
Ivanhoe,199 Waterdale Rd,4,casa,,7.9,3079,1,2,627,179,1910,-37.7615,145.0443
Williamstown,54 Twyford St,3,casa,1535000,8,3016,1,1,507,186,1910,-37.8681,144.8994
Carlton North,956 Lygon St,3,casa,,3.2,3054,1,1,408,215,1910,-37.7833,144.9702
Fitzroy North,236 Barkly St,2,casa,1055000,3.5,3068,1,0,192,85.2,1910,-37.77927,
Flemington,12 John St,2,casa,845000,4.4,3031,1,1,,,1910,-37.7838,144.9273
Clifton Hill,20 Gordon St,2,casa,1430000,3.4,3068,1,0,151,,1910,-37.7912,144.9963
Seddon,278 Nicholson St,2,casa,701000,6.6,3011,1,0,164,,1910,-37.8078,144.8979
Richmond,28 Corsair St,2,casa,1145000,2.6,3121,1,0,170,,1910,-37.8226,145.0064
Brunswick,143 Gold St,2,casa,860000,5.2,3056,1,1,181,,1910,-37.7742,144.9541
Preston,91 Plenty Rd,3,casa,800000,8.8,3072,1,2,207,,1910,-37.7486,145.0039
Prahran,52 Packington St,2,casa,1210000,4.5,3181,1,0,218,,1910,-37.8561,145.0042
Glen Iris,115 Tooronga Rd,2,casa,1020000,9.2,3146,1,0,251,,1910,-37.8627,145.0402
Hawthorn,48 Connell St,4,casa,,4.6,3122,1,0,325,,1910,-37.8187,145.0251
Yarraville,117 Francis St,4,casa,660000,7,3013,1,2,360,,1910,-37.8212,144.8887
Yarraville,117 Francis St,4,casa,,7,3013,1,2,360,,1910,-37.8212,144.8887
Essendon,59 Brewster St,3,casa,1475000,8,3040,1,2,388,,1910,-37.7508,144.9163
Glen Iris,218 Burke Rd,3,casa,,9.2,3146,1,1,432,,1910,-37.8553,145.0523
Canterbury,55 Warburton Rd,3,casa,1385000,9,3126,1,1,444,,1910,-37826,145.0734
Canterbury,32 Faversham Rd,3,casa,,9,3126,1,2,1698,,1910,-37.8209,145.0848
Northcote,95 Beavers Rd,2,casa,,5.5,3070,2,1,175,81,1910,-37.7662,144.9932
West Footscray,20 Warleigh Rd,3,casa,875000,8.2,3012,2,3,336,94,1910,-37.7995,144.8794
Malvern,11 Eva St,3,casa,2025000,7.4,3144,2,2,396,105,1910,-37.8562,145.0373
Malvern,5a Ewart St,3,casa,1970000,7.4,3144,2,1,246,106,1910,-37871,145.0364
Kew East,8 Wattle Rd,3,casa,,7.5,3102,2,1,316,110,1910,-37.7891,145.0469
Armadale,12 Willis St,3,casa,2050000,6.3,3143,2,1,205,116,1910,-37.8574,145.0281
South Melbourne,25 Cobden St,3,casa,1200000,2.1,3205,2,0,113,120,1910,-37.8346,144.9688
Prahran,83 Pridham St,2,casa,,4.5,3181,2,0,154,120,1910,-37.8518,145.0059
Brunswick,38 Edward St,3,casa,1260000,5.2,3056,2,1,192,120,1910,-37.77429,144.96372
Armadale,791 High St,3,casa,1800000,6.3,3143,2,2,405,121,1910,-37.8545,145.0145
Brunswick,1 Bruce St,4,casa,,5.2,3056,2,2,478,122,1910,-37.7725,144966
Flemington,20 Dalgleish St,3,casa,,4.4,3031,2,0,289,123,1910,-37.78116,144.9273
Yarraville,13 Simpson St,3,casa,1100000,7,3013,2,0,214,129,1910,-37.8175,144.8929
Bentleigh,4 Gordon St,3,casa,1340000,13,3204,2,1,526,135,1910,-37.9279,145031
Kew,26 Queen St,3,casa,1800000,5.6,3101,2,1,336,139,1910,-37.8074,145.0318
Williamstown,118 Hannan St,3,casa,1482500,8,3016,2,1,506,139,1910,-37.8592,144888
North Melbourne,51a Oconnell St,2,casa,,2.3,3051,2,1,,140,1910,-37.8045,144.9576
Northcote,3 Brooke St,4,casa,1950000,5.5,3070,2,1,489,140,1910,-37.7762,145.0027
Brighton,5 Bridge St,3,casa,1650000,11.2,3186,2,1,354,143,1910,-37.8916,145.0017
Glen Iris,192 Tooronga Rd,4,casa,2077000,9.2,3146,2,3,553,143,1910,-37.8589,145.0413
Yarraville,23 Castlemaine St,3,casa,1380000,7,3013,2,2,235,144,1910,-37815,144.8928
Fairfield,150 Gillies St,3,casa,1250000,5.8,3078,2,0,327,144,1910,-37.7723,145.0179
Armadale,595 Orrong Rd,3,casa,,6.3,3143,2,2,292,146,1910,-37.8523,145.0116
Hawthorn,1 College St,3,casa,1560000,4.6,3122,2,0,198,148,1910,-37.8169,145.0234
Seddon,258 Nicholson St,3,casa,920000,6.6,3011,2,1,309,149,1910,-37807,144898
Brunswick,2 Horne St,4,casa,,5.2,3056,2,1,351,150,1910,-37.7729,144.9693
Footscray,12 Tait St,4,casa,815000,6.4,3011,2,1,369,151,1910,-37.7914,144.8957
Malvern East,4 Findon St,3,casa,,11.2,3145,2,1,322,152,1910,-37.8719,145.0393
Port Melbourne,75 Swallow St,3,casa,1753000,3.8,3207,2,1,225,153,1910,-37.8381,144.9329
Northcote,91 Arthurton Rd,3,casa,1255000,5.5,3070,2,1,259,156,1910,-37.7687,144.9922
Northcote,15 Leonard St,3,casa,,5.5,3070,2,0,356,156,1910,-37.7821,145.0131
Malvern East,5 Repton Rd,3,casa,,11.2,3145,2,2,525,157,1910,-37.8818,145052
Seddon,15 Pentland Pde,4,casa,1201000,6.6,3011,2,1,299,158,1910,-37.8087,144.8952
Coburg,81 Moreland Rd,3,casa,,7.8,3058,2,2,494,158,1910,-37.7563,144.9731
Elsternwick,8 Ross St,4,casa,1100000,8.5,3185,2,0,147,159,1910,-37.8852,144.9997
Yarraville,4 Regent St,4,casa,1520000,7,3013,2,0,261,160,1910,-37.8123,144.8888
St Kilda,48 Greeves St,4,casa,2000000,6.1,3182,2,3,420,160,1910,-37.8667,144.9832
Moonee Ponds,25 Wilson St,4,casa,1505000,6.9,3039,2,2,441,164,1910,-37.7627,144.9278
Essendon,21 Miller St,3,casa,1445000,8,3040,2,1,400,168,1910,-37.7542,144.9117
Coburg,51 Hawthorn St,4,casa,,7.8,3058,2,2,380,170,1910,-37.7485,144952
Kingsville,72 Chirnside St,4,casa,1275000,7.8,3012,2,1,274,172,1910,-37.8078,144.8825
Elwood,32 Burns St,4,casa,1875000,7.7,3184,2,0,223,173,1910,-37882,144993
Ascot Vale,7 Francis St,3,casa,1380000,5.9,3032,2,2,277,174,1910,-37.7777,144.9221
Northcote,24 Jessie St,4,casa,1600000,5.5,3070,2,1,464,179,1910,-37.7805,145004
Richmond,7 Bowen St,3,casa,2000000,2.6,3121,2,1,217,180,1910,-37.8158,144.9931
Ivanhoe,55 Livingstone St,4,casa,1650000,7.9,3079,2,1,589,185,1910,-37.7671,145.03765
Coburg,51 Gordon St,4,casa,1500000,7.8,3058,2,1,453,187,1910,-37.75026,144.94806
Williamstown,44 Electra St,4,casa,2165000,8,3016,2,2,450,190,1910,-37.79801,144.86677
Kew,3 Oshaughnessy St,3,casa,1905000,5.6,3101,2,2,591,190,1910,-37812,145.0268
Moonee Ponds,31 Wordsworth St,4,casa,1345000,6.9,3039,2,2,313,193,1910,-37.7709,144.9288
South Yarra,11a Nicholson St,4,casa,,3.3,3141,2,2,311,196,1910,-37.8424,144.9869
Canterbury,47 Warburton Rd,3,casa,1680000,9,3126,2,1,325,197,1910,-37826,145.0729
Brighton,120 Cole St,4,casa,2145000,11.2,3186,2,1,550,197,1910,-37.8954,145.0017
Canterbury,140 Canterbury Rd,4,casa,,9,3126,2,0,808,198,1910,-37.8235,145.0751
Brunswick,25 Gray St,4,casa,1755000,5.2,3056,2,1,354,199,1910,-37.7745,144.9523
South Yarra,76 Leopold St,3,casa,2695000,3.3,3141,2,1,215,200,1910,-37.8361,144.9831
Moonee Ponds,109 Waverley St,4,casa,1515000,6.9,3039,2,3,574,203,1910,-37.77302,144.91997
Caulfield South,364 Kooyong Rd,4,casa,1916000,9.3,3162,2,2,630,205,1910,-37.8894,145.0145
Middle Park,18 Fraser St,4,casa,,4.1,3206,2,1,204,207,1910,-37.84469,144.93069
Albert Park,115 Page St,4,casa,4735000,3.3,3206,2,1,330,207,1910,-37.8477,144.9558
Elsternwick,11 Prentice St,4,casa,,8.5,3185,2,1,354,207,1910,-37883,145.0118
Abbotsford,124 Yarra St,3,casa,1876000,2.5,3067,2,0,245,210,1910,-37.8024,144.9993
Malvern East,24 Kerferd St,4,casa,3200000,11.2,3145,2,2,709,214,1910,-37.86927,145.04339
Essendon,55 Richardson St,4,casa,1800000,8,3040,2,2,648,215,1910,-37.7493,144.9112
Glen Iris,1 Maitland St,3,casa,2825000,9.2,3146,2,4,885,217,1910,-37.8577,145.0421
Brighton,12 May St,4,casa,2800000,11.2,3186,2,4,569,229,1910,-37.8962,145.0011
Canterbury,2 McGregor St,4,casa,2375000,9,3126,2,1,653,229,1910,-37.8292,145.0852
Malvern East,2 Tennyson St,4,casa,2001000,11.2,3145,2,2,526,243,1910,-37.8771,145.0505
Moonee Ponds,25 George St,4,casa,955000,6.9,3039,2,3,431,246,1910,-37.76701,144.92453
Moonee Ponds,1 Jennings St,4,casa,,6.9,3039,2,4,809,269,1910,-37.7617,144.9117
Canterbury,8 Dudley Pde,5,casa,2350000,9,3126,2,4,838,282,1910,-37.8252,145.0721
Surrey Hills,212 Union Rd,4,casa,2050000,11.2,3127,2,2,949,293,1910,-37.8188,145.0984
Canterbury,31 Rubens Gr,5,casa,2900000,9,3126,2,2,795,297,1910,-37.8181,145.0668
Hampton,28 Holyrood St,5,casa,,13.7,3188,2,2,548,316,1910,-37.9333,144.9975
Surrey Hills,9 Bristol St,5,casa,,11.2,3127,2,1,617,326,1910,-37.8326,145.0868
Ascot Vale,14 Ormond Rd,6,casa,,5.9,3032,2,3,833,411,1910,-37.7729,144.9291
Hawthorn,12 Hunter St,3,casa,1985000,4.6,3122,2,1,254,,1910,-37.82874,145.02463
Ascot Vale,8 Fenton St,3,casa,,5.9,3032,2,0,270,,1910,-37.77476,144.9289
Newport,473 Melbourne Rd,3,casa,920000,8.4,3015,2,2,296,,1910,-37.8395,144.8825
Caulfield South,9 Filbert St,3,casa,1470000,9.3,3162,2,2,296,,1910,-37.8906,145.0224
Elwood,17 Addison St,3,casa,1700000,7.7,3184,2,2,316,,1910,-37875,144.9813
Hawthorn,27 Falmouth St,3,casa,2160000,4.6,3122,2,2,387,,1910,-37.82,145.0421
Elwood,13 Cyril St,5,casa,2275000,7.7,3184,2,1,399,,1910,-37.87531,144.99149
St Kilda,71 Barkly St,5,casa,2000000,6.1,3182,2,2,436,,1910,-37.8618,144982
Brighton,15 Gould St,3,casa,2400000,11.2,3186,2,2,835,,1910,-37.9225,144991
Caulfield North,127 Normanby Rd,4,casa,2625000,8.1,3161,2,3,836,,1910,-37.8696,145.0323
Surrey Hills,1 Vincent St,4,casa,,11.2,3127,2,2,1015,,1910,-37.83273,
Camberwell,8 Stanhope Gr,5,casa,,7.8,3124,2,3,1040,,1910,-37.8234,145.0653
Brunswick,9 Blair St,4,casa,1802500,5.2,3056,3,1,238,93,1910,-37.7713,144.9643
Port Melbourne,281 Esplanade East,3,casa,1400000,3.8,3207,3,0,92,105,1910,-37.71864,144.92812
Moonee Ponds,11 Bowen St,3,casa,930000,6.9,3039,3,1,325,132,1910,-37.7702,144.9091
Essendon,4 Raleigh St,5,casa,,8,3040,3,3,684,244,1910,-37.7537,144.9268
South Yarra,68 Hawksburn Rd,4,casa,,3.3,3141,3,2,539,249,1910,-37.83791,145.00237
Albert Park,55 Withers St,4,casa,2800000,3.3,3206,3,1,327,254,1910,-37.8467,144.9475
Kew,27 Carson St,5,casa,,5.6,3101,3,2,492,290,1910,-37.80826,144.8619
Glen Huntly,27 Augusta St,5,casa,2575000,10.4,3163,3,2,688,347,1910,-37.8921,145.0381
Balwyn,262 Union Rd,4,casa,3290000,9.7,3103,3,2,1007,350,1910,-37.8135,145.0995
Williamstown,120 Cecil St,5,casa,,8,3016,3,3,1037,355,1910,-37.8629,144.9006
Glen Iris,15 Howitt St,4,casa,3010000,9.2,3146,3,2,677,,1910,-37.8476,145.0554
Rosanna,1 Hillside Rd,5,casa,2530000,11.4,3084,3,1,1850,,1910,-37.7465,145.0612
Alphington,83 Fulham Rd,5,casa,2840000,6.4,3078,4,4,809,165,1910,-37775,145.0268
Kew,51 Princess St,4,casa,2460000,5.6,3101,4,2,737,293,1910,-37.8042,145.0291
Northcote,167 Clarke St,5,casa,4300000,5.5,3070,4,3,569,,1910,-37.7763,144.9964
Middle Park,337 Danks St,5,casa,,4.1,3206,5,2,557,315,1910,-37.8505,144.9582
Malvern East,16 Davies St,4,casa,,11.2,3145,2,3,654,238,1911,-37.8664,145052
Prahran,22 Kelvin Gr,4,casa,,4.5,3181,4,1,602,450,1911,-37.8562,145.0091
Seddon,27 thomson St,2,casa,955000,6.6,3011,1,0,148,72,1912,-37.8084,144.8907
Ivanhoe,8 Ailsa Gr,3,casa,,7.9,3079,1,1,609,192,1912,-37.7661,145.0423
South Melbourne,218 Ferrars St,1,casa,1002000,2.1,3205,1,0,84,,1912,-37.8332,144.9548
Box Hill,6 Bass St,4,casa,1625000,13.1,3128,2,2,620,,1912,-37.8279,145121
Camberwell,612 Riversdale Rd,4,casa,2750000,7.8,3124,3,1,,257,1912,-37.8325,145.0649
Northcote,215 Clarke St,4,casa,3850000,5.5,3070,4,8,1390,,1912,-37.7767,144.9996
Footscray,7 The Crescent,3,casa,1270000,6.4,3011,1,1,452,,1913,-37.79389,144.89336
Clifton Hill,6 Walker St,4,casa,,3.4,3068,2,1,281,121,1913,-37.7881,145.0011
Elsternwick,9 Ripon Gr,4,casa,1650000,8.5,3185,3,2,386,185,1913,-37883,144999
Hawthorn,50 Kinkora Rd,4,casa,5050000,4.6,3122,4,2,905,373,1913,-37.8168,145.0321
St Kilda,32 Gurner St,4,casa,2220000,6.1,3182,2,2,402,,1914,-37861,144.9819
Albert Park,46 Withers St,2,casa,1190000,3.3,3206,1,0,111,70,1915,-37.84453,144.94887
Elsternwick,22 Ross St,2,casa,895000,8.5,3185,1,1,147,81,1915,-37.8849,144.9993
Richmond,149 Mary St,3,casa,1100000,2.6,3121,1,0,162,81,1915,-37.8241,145.0015
St Kilda,64 Havelock St,2,casa,1200500,6.1,3182,1,0,201,83,1915,-37.8654,144.9809
Balwyn,59 Narrak Rd,2,casa,,9.7,3103,1,1,954,86,1915,-37.8078,145096
Kensington,32 Epsom Rd,2,casa,825000,4.2,3031,1,1,211,88,1915,-37.7925,144.9264
Kingsville,104 Williamstown Rd,2,casa,677500,7.8,3012,1,1,224,89,1915,-37.8083,144.8841
Elwood,134 Tennyson St,2,casa,,7.7,3184,1,0,209,93,1915,-37.8798,144991
Footscray,51 Lynch St,2,casa,858000,6.4,3011,1,1,313,93,1915,-37.7966,144.9016
Thornbury,29 Collins St,2,casa,1211000,6.5,3071,1,0,302,97,1915,-37.7549,145.0035
Malvern,6 Euston St,2,casa,,7.4,3144,1,0,218,105,1915,-37.8567,145.0389
Northcote,50 Herbert St,3,casa,1300000,5.5,3070,1,0,191,108,1915,-37.78364,145.00749
Elsternwick,31 Prentice St,3,casa,1450000,8.5,3185,1,2,351,108,1915,-37.8832,145.0133
Coburg,33 Wellington St,3,casa,860000,7.8,3058,1,1,283,109,1915,-37.7416,144.9582
Kensington,49 Robertson St,3,casa,1230000,4.2,3031,1,1,312,109,1915,-37793,144934
Coburg,217 Bell St,3,casa,,7.8,3058,1,1,356,109,1915,-37.7404,144.9553
Middle Park,98 Harold St,2,casa,1630000,4.1,3206,1,0,152,113,1915,-37.8513,144.9586
Fitzroy North,201A Clauscen St,3,casa,1286000,3.5,3068,1,0,275,116,1915,-37.7779,144.9862
Brunswick,270 Albion St,3,casa,880000,5.2,3056,1,1,264,117,1915,-37.7603,144.9573
Prahran,5 Pickford St,2,casa,1582000,4.5,3181,1,0,214,122,1915,-37.8572,145.0066
Port Melbourne,104 Princes St,3,casa,,3.8,3207,1,2,311,137,1915,-37.8393,144.9367
Moonee Ponds,101 Holmes Rd,4,casa,1120000,6.9,3039,1,1,571,138,1915,-37.7659,144.9116
Newport,91 High St,4,casa,970000,8.4,3015,1,1,619,151,1915,-37839,144.8854
Brighton,147 North Rd,2,apartamento,975000,11.2,3186,1,1,444,182,1915,-37.89933,145.00455
Flemington,20 Bryant St,5,casa,1550000,4.4,3031,1,1,432,200,1915,-37.78585,144.93592
Essendon,118 Buckley St,3,casa,1100000,8,3040,1,2,,700,1915,-37.7566,144.9155
Essendon,130 Tennyson St,2,casa,1001000,8,3040,1,2,244,,1915,-37.7543,144.9307
Flemington,20 Glance St,3,casa,991000,4.4,3031,1,4,402,,1915,-37.7867,144.9249
Northcote,270 Clarke St,3,casa,,5.5,3070,2,2,228,102,1915,-37.7775,145.0039
Armadale,2b Denbigh Rd,3,casa,,6.3,3143,2,1,228,111,1915,-37.8603,145.0155
Kingsville,134 Chirnside St,3,casa,1155000,7.8,3012,2,2,269,123,1915,-37.8108,144.8819
St Kilda,59 Clyde St,3,casa,1891000,6.1,3182,2,3,384,123,1915,-37.8645,144.9805
Footscray,4 Adelaide St,4,casa,1225000,6.4,3011,2,1,319,130,1915,-37.7943,144.8875
Footscray,4 Adelaide St,4,casa,1225000,6.4,3011,2,1,319,130,1915,-37.7943,144.8875
Kingsville,74 Chirnside St,3,casa,1340000,7.8,3012,2,0,272,132,1915,-37.8079,144.8825
Armadale,6A Munro St,3,casa,,6.3,3143,2,1,242,143,1915,-37.8534,145.0185
Moonee Ponds,36 Scotia St,3,casa,850000,6.9,3039,2,1,271,143,1915,-37.7682,144.9058
Brighton,8 Sargon Gr,4,casa,,11.2,3186,2,2,525,146,1915,-37.8939,145.0029
Moonee Ponds,9 Corio St,3,casa,1670000,6.9,3039,2,2,803,166,1915,-37.76629,144.92453
Carnegie,21 Edgewood St,3,casa,1490000,11.4,3163,2,1,371,167,1915,-37.8871,145052
Yarraville,31 Frederick St,4,casa,1320000,7,3013,2,1,319,171,1915,-37.8197,144.8957
Hawthorn East,310 Riversdale Rd,3,casa,1450000,7.5,3123,2,2,466,176,1915,-37.8305,145.0475
Malvern East,21 Albert St,3,casa,,11.2,3145,2,2,650,176,1915,-37.8756,145.0637
Malvern East,16 Tooronga Rd,3,casa,2020000,11.2,3145,2,2,711,196,1915,-37.87233,145.05668
Elwood,5 Tiuna Gr,3,casa,3572000,7.7,3184,2,6,737,207,1915,-37.8839,144.9831
Caulfield East,75 Grange Rd,5,casa,1335000,9.3,3145,2,1,521,208,1915,-37.8868,145.0462
Glen Iris,54 Maitland St,4,casa,,9.2,3146,2,1,552,213,1915,-37.85457,
Caulfield North,123 Normanby Rd,4,casa,2170000,8.1,3161,2,1,810,215,1915,-37.8698,145.0325
Brighton,135 Head St,3,casa,,11.2,3186,2,2,484,216,1915,-37.8926,144.9992
Carnegie,73 Truganini Rd,4,casa,1655000,11.4,3163,2,2,595,221,1915,-37.8916,145.0543
Glen Iris,3 Glentilt Rd,4,casa,,9.2,3146,2,3,643,221,1915,-37.8535,145.0501
Malvern East,78 Emo Rd,4,casa,2355000,11.2,3145,2,3,,223,1915,-37.8755,145.0523
South Yarra,68 Oban St,3,casa,2200000,3.3,3141,2,0,358,238,1915,-37.8425,145.0031
West Footscray,61 Clive St,4,casa,1435000,8.2,3012,2,2,523,244,1915,-37.7075,145.07767
Surrey Hills,7 Newton St,5,casa,2100000,11.2,3127,2,2,1025,277,1915,-37.8286,145.1094
Williamstown,200 Osborne St,5,casa,,8,3016,2,3,1019,278,1915,-37.8642,144.8915
Malvern East,35 Warley Rd,5,casa,2350000,11.2,3145,2,2,567,327,1915,-37.8786,145.0495
Essendon,6 Banchory St,5,casa,,8,3040,2,2,912,,1915,-37.7502,144.9079
Richmond,29 Bennett St,3,casa,1088000,2.6,3121,3,2,168,120,1915,-37.8126,145.0064
Brighton East,38 Agnew St,3,casa,1710000,10.7,3187,3,2,435,228,1915,-37.91,145.0113
Malvern,50 Hunter St,4,casa,3470000,7.4,3144,3,2,585,248,1915,-37868,145038
Brighton,476 New St,4,casa,,11.2,3186,3,2,683,254,1915,-37.8931,144.9955
Malvern East,14 Beaver St,5,casa,,11.2,3145,3,3,880,303,1915,-37.8701,145.0409
Alphington,29 Alphington St,5,casa,,6.4,3078,3,4,743,,1915,-37.7845,145.0208
Princes Hill,313 Pigdon St,3,casa,,3.7,3054,2,0,360,211,1916,-37.7815,144.9651
Alphington,21 Como St,5,casa,,6.4,3078,2,2,552,211,1916,-37.7829,145.0337
Brunswick,11 Denman St,4,casa,1410000,5.2,3056,2,1,460,214,1916,-37.7554,144.9544
Glen Iris,16 Valency Rd,4,casa,,9.2,3146,2,2,751,,1916,-37.8572,145.0538
Melbourne,1001/639 Little Bourke St,2,kitnet,470000,2.8,3000,1,2,,55,1917,-37816,144.9535
Elsternwick,3 Clarence St,4,casa,1450000,8.5,3185,2,2,376,192,1917,-37892,145008
Malvern East,43 Tooronga Rd,4,casa,,11.2,3145,2,2,582,246,1917,-37.8691,145.0389
Brighton,21 Grandview Rd,2,casa,,11.2,3186,1,1,742,135,1918,-37.9021,145.0048
Preston,191 Tyler St,3,casa,950000,8.8,3072,1,2,563,180,1918,-37.7318,145.0192
Thornbury,35D Clapham St,3,casa,1346000,6.5,3071,2,2,349,130,1918,-37.75485,144.99997
Camberwell,1 Radnor St,4,casa,,7.8,3124,2,2,649,214,1918,-37.8397,145.0622
Malvern East,8 Ash Gr,5,casa,4802500,11.2,3145,2,4,837,267,1919,-37.8756,145.0561
Carnegie,218 Neerim Rd,4,casa,1275000,11.4,3163,2,0,365,,1919,-37.8877,145.0507
Balwyn,32 Bevan St,4,casa,,9.7,3103,3,4,647,,1919,-37.8148,145.0744
Kew,1181 Burke Rd,4,casa,,5.6,3101,3,1,778,,1919,-37.8149,145.0596
Footscray,105/72 Cross St,1,kitnet,375000,6.4,3011,1,1,,50,1920,-37.8006,144881
Richmond,35 Shelley St,2,casa,905000,2.6,3121,1,0,139,54,1920,-37.8118,144.9937
Melbourne,32/2 Exhibition St,1,kitnet,700000,2.8,3000,1,1,,64,1920,-37.8157,144.9727
Melbourne,303/166 Flinders St,1,kitnet,440000,2.8,3000,1,1,,65,1920,-37.8168,144.9691
Elwood,3/2 Southey St,2,kitnet,,7.7,3184,1,0,,67,1920,-37.8739,144.9832
St Kilda,6/34 Princes St,1,kitnet,,6.1,3182,1,0,,68,1920,-37.87082,144.97665
Maidstone,19 Norfolk St,2,casa,711000,9.2,3012,1,0,163,69,1920,-37789,144.8813
Footscray,20 Ryan St,2,casa,760000,6.4,3011,1,0,130,70,1920,-37.7988,144.9045
Coburg,27 Bruce St,3,casa,680000,7.8,3058,1,2,462,72,1920,-37.7448,144.9478
Northcote,58 Herbert St,2,casa,950000,5.5,3070,1,1,191,73,1920,-37.7715,144.9951
Flemington,37 Bryant St,2,casa,,4.4,3031,1,0,168,78,1920,-37.7838,144.9333
Brighton,8/35 Normanby St,2,kitnet,756000,11.2,3186,1,1,,80,1920,-37.9112,144.9909
Yarraville,43 Ballarat St,2,casa,767000,7,3013,1,0,128,80,1920,-37.8179,144.8908
Armadale,75 Sutherland Rd,3,casa,1285000,6.3,3143,1,2,186,80,1920,-37.8554,145.0173
Moonee Ponds,31 Bowen St,2,casa,860000,6.9,3039,1,1,301,80,1920,-37.7695,144.9092
Yarraville,40 Kingston St,3,casa,872500,7,3013,1,2,189,85,1920,-37.81494,144.86305
Brunswick,17 Sutherland St,2,casa,1015000,5.2,3056,1,0,453,86,1920,-37762,144.9547
Essendon,2 Collins St,2,casa,,8,3040,1,0,192,87,1920,-37.7473,144.9073
South Yarra,21 Ralston St,3,casa,906000,3.3,3141,1,0,154,88,1920,-37.8395,144.9868
Ascot Vale,119 Roseberry St,2,casa,750000,5.9,3032,1,1,226,92,1920,-37.7745,144.9093
Elsternwick,26 Leslie St,3,casa,,8.5,3185,1,2,334,93,1920,-37.8828,145.0135
Northcote,79 Christmas St,2,casa,1170000,5.5,3070,1,3,453,93,1920,-37.7666,145.0132
Newport,22 Mirls St,2,casa,962000,8.4,3015,1,1,402,94,1920,-37.8446,144.8796
Moonee Ponds,75 Bowen St,2,casa,1040000,6.9,3039,1,2,313,95,1920,-37.76785,144.93383
Pascoe Vale,2 Ann St,2,casa,999000,9.9,3044,1,1,587,95,1920,-37.72555,
Box Hill,5 Patricia St,3,casa,1170000,13.1,3128,1,1,755,95,1920,-37.8264,145.1248
Thornbury,37 Lewis St,3,casa,995000,6.5,3071,1,1,327,96,1920,-37.7574,144.9854
West Footscray,55 Elphinstone St,3,casa,805000,8.2,3012,1,3,372,96,1920,-37796,144.8728
Northcote,45 Emmaline St,2,casa,1020000,5.5,3070,1,1,354,97,1920,-37.7638,144.9933
Ascot Vale,72 Bloomfield Rd,2,casa,1020000,5.9,3032,1,1,226,98,1920,-37.77605,144.91647
West Footscray,12 Exhibition St,2,casa,,8.2,3012,1,1,246,98,1920,-37.8058,144.8763
Coburg,52 Stawell St,3,casa,841000,7.8,3058,1,3,385,98,1920,-37734,144.9603
Footscray,88 Eleanor St,3,casa,775000,6.4,3011,1,1,242,99,1920,-37.7956,144.8848
Balaclava,6 Blenheim St,3,casa,1193000,6.6,3183,1,1,178,100,1920,-37.8663,144.9948
Kingsville,57 Wales St,3,casa,925000,7.8,3012,1,1,275,100,1920,-37.8085,144.8802
Footscray,39 Moore St,3,casa,,6.4,3011,1,2,272,106,1920,-37.7977,144904
Footscray,39 Moore St,3,casa,895000,6.4,3011,1,2,272,106,1920,-37.7977,144.89046
Newport,94 Mason St,2,casa,801000,8.4,3015,1,1,343,106,1920,-37.8414,144.8752
Coburg,39 Salisbury St,3,casa,,7.8,3058,1,2,441,107,1920,-37.7448,144.9738
Yarraville,8 Knox St,3,casa,,7,3013,1,1,507,107,1920,-37815,144896
St Kilda,1/160 Carlisle St,2,kitnet,902000,6.1,3182,1,0,,108,1920,-37.8681,144.9894
Ascot Vale,30 Rothwell St,3,casa,940000,5.9,3032,1,2,298,108,1920,-37.7777,144.9195
Footscray,35 Leander St,2,casa,835000,6.4,3011,1,1,222,109,1920,-37.7962,144.8844
Northcote,77 Union St,2,casa,1634000,5.5,3070,1,2,376,109,1920,-37.7789,144.9952
Footscray,11 Geelong Rd,3,casa,,6.4,3011,1,2,522,109,1920,-37.7958,144.8991
Mont Albert,28 Lorne Pde,3,casa,,11.8,3127,1,0,697,109,1920,-37.8219,145.1027
Richmond,77 Buckingham St,3,casa,1182000,2.6,3121,1,1,199,110,1920,-37.8139,145.0039
Ascot Vale,62 Mirams St,3,casa,890000,5.9,3032,1,1,242,110,1920,-37.7765,144.9114
Coburg,42 Sheffield St,2,casa,,7.8,3058,1,1,319,110,1920,-37.74693,144.96948
Ascot Vale,21A Geddes St,3,casa,1037500,5.9,3032,1,2,506,110,1920,-37.7779,144.9133
Maribyrnong,28 Kellaway St,3,casa,920000,8.7,3032,1,2,689,110,1920,-37.7823,144887
Richmond,17 Hoddle St,3,casa,,2.6,3121,1,2,169,111,1920,-37.8103,144.9915
Brighton,28 Loller St,2,casa,1570000,11.2,3186,1,0,352,111,1920,-37.9154,145001
Collingwood,82 Sackville St,2,casa,1265000,1.6,3066,1,1,282,112,1920,-37.7985,144.9883
Richmond,13 Hosie St,3,casa,,2.6,3121,1,0,215,113,1920,-37.8201,145.0017
Brunswick West,191 Hope St,3,casa,,5.9,3055,1,3,591,113,1920,-37.76194,144.94194
Brunswick East,192 Blyth St,3,casa,1600000,4.5,3057,1,2,812,113,1920,-37.7673,144.9782
Cremorne,72 Cubitt St,2,casa,1000000,2.5,3121,1,2,176,114,1920,-37.8281,144.9923
Reservoir,6 Frankston St,3,casa,,11.2,3073,1,1,466,115,1920,-37.7247,145.0006
Preston,11 Tasman St,2,casa,,8.8,3072,1,3,650,115,1920,-37.73169,144.99174
Brunswick East,160 Glenlyon Rd,3,casa,825000,4.5,3057,1,1,213,116,1920,-37.7729,144.9724
Camberwell,114 Through Rd,3,casa,1930000,7.8,3124,1,2,643,116,1920,-37.84045,145.09235
Prahran,30 Harvey St,2,casa,,4.5,3181,1,2,220,117,1920,-37.8533,145.01
Toorak,16 Tashinny Rd,3,casa,1689000,4.6,3142,1,0,222,118,1920,-37.8448,145.0055
Preston,27 South St,3,casa,923000,8.8,3072,1,0,333,118,1920,-37.7423,145.0097
Brunswick West,25 Wales St,3,casa,1190000,5.9,3055,1,1,,119,1920,-37.7564,144.9422
Kew,3 Segtoune St,3,casa,,5.6,3101,1,2,582,119,1920,-37.8003,145.05461
Essendon,11 McPhail St,2,casa,870000,8,3040,1,2,319,120,1920,-37.7555,144.9118
Moonee Ponds,14 Scotia St,4,casa,1225000,6.9,3039,1,1,388,120,1920,-37.7692,144.9057
Kew,140 Eglinton St,3,casa,,5.6,3101,1,4,455,120,1920,-37.8009,145.0418
Newport,42 Farm St,3,casa,1151000,8.4,3015,1,5,571,120,1920,-37.8417,144.8896
Coburg North,18 Keane St,2,casa,,9.2,3058,1,3,582,123,1920,-37729,144.9701
Balwyn,166 Gordon St,2,casa,2100000,9.7,3103,1,1,659,123,1920,-37.8094,145.0807
Northcote,30 Clarke St,3,casa,1200000,5.5,3070,1,1,215,125,1920,-37.7759,144.9909
Coburg,27 Higinbotham St,3,casa,947000,7.8,3058,1,1,372,125,1920,-37735,144.9581
Northcote,238 Victoria Rd,3,casa,1190000,5.5,3070,1,1,445,125,1920,-37.7652,145.0123
Reservoir,15 Down St,3,casa,780000,11.2,3073,1,2,464,125,1920,-37.7245,145004
Williamstown North,18 Inglis St,3,casa,1225000,8.9,3016,1,1,311,126,1920,-37.8546,144.8762
Thornbury,152 Gooch St,3,casa,1427000,6.5,3071,1,1,275,127,1920,-37.7592,145.0105
Brunswick,7 Hall St,4,casa,1217000,5.2,3056,1,0,363,127,1920,-37.7621,144.9506
Coburg,41 Service St,3,casa,1130000,7.8,3058,1,2,735,127,1920,-37.7379,144.9623
Hughesdale,20 Dalston Rd,3,casa,1340000,13,3166,1,1,705,128,1920,-37.8994,145.0816
Brunswick,4 Bell St,4,casa,1790000,5.2,3056,1,1,416,129,1920,-37.7737,144965
Yarraville,44 Severn St,3,casa,1930000,7,3013,1,4,902,129,1920,-37.8153,144.8796
Brunswick East,215 Weston St,3,casa,1495000,4.5,3057,1,1,259,130,1920,-37.7762,144.9755
Newport,60 Speight St,3,casa,891500,8.4,3015,1,0,344,130,1920,-37.8424,144.8754
Canterbury,33 Myrtle Rd,3,casa,1587500,9,3126,1,1,459,130,1920,-37.8265,145072
Camberwell,13 Smith Rd,3,casa,2177000,7.8,3124,1,2,635,130,1920,-37.8454,145.0707
